name,ibge_code,state,capital,category_number,label_name,latitude,longitude
Baependi,3104908,MG,Baependi,5,Baependi,-21.9576108079318,-44.8903706627583
Baldim,3105004,MG,Baldim,5,Baldim,-19.2864373041598,-43.9570406413178
Amanda Baldim,3105004,MG,Baldim,10,Amanda,-19.2864373041598,-43.9570406413178
"São Vicente Baldim ",3105004,MG,Baldim,15,São Vicente,-19.2864373041598,-43.9570406413178
Bambui,3105103,MG,Bambuí,5,Bambuí,-20.0118916914226,-45.9790448126104
Bandeira,3105202,MG,Bandeira,5,Bandeira,-15.8849769791563,-40.5588864205795
Bandeira do Sul,3105301,MG,Bandeira do Sul,5,Bandeira do Sul,-21.7248685443114,-46.3852629849298
Barão de Cocais,3105400,MG,Barão de Cocais,5,Barão de Cocais,-19.9358474342692,-43.4848824690371
"Cocais Barão de Cocais ",3105400,MG,Barão de Cocais,10,Cocais,-19.9358474342692,-43.4848824690371
Barão de Monte Alto,3105509,MG,Barão de Monte Alto,5,Barão de Monte Alto,-21.2478823447256,-42.2391465797033
"Cachoeira Alegre Barão de Monte Alto ",3105509,MG,Barão de Monte Alto,10,Cachoeira Alegre,-21.2478823447256,-42.2391465797033
"Silveira Carvalho Barão de Monte Alto ",3105509,MG,Barão de Monte Alto,15,Silveira Carvalho,-21.2478823447256,-42.2391465797033
Barbacena,3105608,MG,Barbacena,5,Barbacena,-21.2249153847091,-43.7761933160596
Barra Longa,3105707,MG,Barra Longa,5,Barra Longa,-20.2836358984769,-43.0371967110936
Bonfim da Barra Barra Longa,3105707,MG,Barra Longa,15,Bonfim da Barra,-20.2836358984769,-43.0371967110936
Barroso,3105905,MG,Barroso,5,Barroso,-21.176286999031,-43.9753811243157
Bela Vista de Minas,3106002,MG,Bela Vista de Minas,5,Bela Vista de Minas,-19.8258467639902,-43.0969322664076
Belmiro Braga,3106101,MG,Belmiro Braga,5,Belmiro Braga,-21.9501313020299,-43.4157207678682
"Porto das Flores Belmiro Braga ",3106101,MG,Belmiro Braga,10,Porto das Flores,-21.9501313020299,-43.4157207678682
"Sobragi Belmiro Braga ",3106101,MG,Belmiro Braga,13,Sobragi,-21.9501313020299,-43.4157207678682
"Tres Ilhas Belmiro Braga ",3106101,MG,Belmiro Braga,15,Três Ilhas,-21.9501313020299,-43.4157207678682
Belo Horizonte,3106200,MG,Belo Horizonte,5,Belo Horizonte,1058,
"Barreiro Belo Horizonte ",3106200,MG,Belo Horizonte,25,Barreiro,-19.9375242937751,-43.9264531735305
"Venda Nova Belo Horizonte ",3106200,MG,Belo Horizonte,60,Venda Nova,-19.9375242937751,-43.9264531735305
Belo Oriente,3106309,MG,Belo Oriente,5,Belo Oriente,-19.224644999373,-42.4872826001983
"Bom Jesus do Bagre Belo Oriente ",3106309,MG,Belo Oriente,6,Bom Jesus do Bagre,-19.224644999373,-42.4872826001983
"Perpetuo Socorro Belo Oriente ",3106309,MG,Belo Oriente,10,Perpétuo Socorro,-19.224644999373,-42.4872826001983
"São Sebastião de Braunas Belo Oriente ",3106309,MG,Belo Oriente,20,São Sebastião de Braúnas,-19.224644999373,-42.4872826001983
Belo Vale,3106408,MG,Belo Vale,5,Belo Vale,-20.4066578717857,-44.0285276542128
"Santana do Paraopeba Belo Vale ",3106408,MG,Belo Vale,10,Santana do Paraopeba,-20.4066578717857,-44.0285276542128
Berilo,3106507,MG,Berilo,5,Berilo,-16.9503017552809,-42.4613537743061
"Leliveldia Berilo ",3106507,MG,Berilo,20,Lelivéldia,-16.9503017552809,-42.4613537743061
Berizal,3106655,MG,Berizal,5,Berizal,-15.6107836516615,-41.7467850898706
Bertopolis,3106606,MG,Bertópolis,5,Bertópolis,-17.0609628122125,-40.5722458500666
"Umburaninha Bertopolis ",3106606,MG,Bertópolis,20,Umburaninha,-17.0609628122125,-40.5722458500666
Betim,3106705,MG,Betim,5,Betim,-19.9653792400851,-44.1975511032666
Bias Fortes,3106804,MG,Bias Fortes,5,Bias Fortes,-21.6087474847644,-43.7565748274501
Bicas,3106903,MG,Bicas,5,Bicas,-21.7221051209875,-43.0620472620857
Biquinhas,3107000,MG,Biquinhas,5,Biquinhas,-18.7847516602239,-45.5046517160236
Boa Esperança,3107109,MG,Boa Esperança,5,Boa Esperança,-24.2394931592462,-52.7927774592961
Bocaina de Minas,3107208,MG,Bocaina de Minas,5,Bocaina de Minas,-22.1696084676486,-44.3973057604562
"Mirantao Bocaina de Minas ",3107208,MG,Bocaina de Minas,10,Mirantão,-22.1696084676486,-44.3973057604562
Bocaiuva,3107307,MG,Bocaiúva,5,Bocaiúva,-17.1121047332277,-43.8144435712164
Alto Belo Bocaiuva,3107307,MG,Bocaiúva,20,Alto Belo,-17.1121047332277,-43.8144435712164
"Terra Branca Bocaiuva ",3107307,MG,Bocaiúva,25,Terra Branca,-17.1121047332277,-43.8144435712164
Bom Despacho,3107406,MG,Bom Despacho,5,Bom Despacho,-19.737596333881,-45.2541151985748
"Engenho do Ribeiro Bom Despacho ",3107406,MG,Bom Despacho,10,Engenho do Ribeiro,-19.737596333881,-45.2541151985748
Bom Jardim de Minas,3107505,MG,Bom Jardim de Minas,5,Bom Jardim de Minas,-21.9458997849154,-44.189374455961
"Tabuao Bom Jardim de Minas ",3107505,MG,Bom Jardim de Minas,10,Tabuão,-21.9458997849154,-44.189374455961
Bom Jesus da Penha,3107604,MG,Bom Jesus da Penha,5,Bom Jesus da Penha,-21.017269311163,-46.523543613945
Bom Jesus do Amparo,3107703,MG,Bom Jesus do Amparo,5,Bom Jesus do Amparo,-19.7041372739146,-43.473514924483
Bom Jesus do Galho,3107802,MG,Bom Jesus do Galho,5,Bom Jesus do Galho,-19.8244720395432,-42.3157265526063
"Passa Dez Bom Jesus do Galho ",3107802,MG,Bom Jesus do Galho,10,Passa Dez,-19.8244720395432,-42.3157265526063
"Quartel do Sacramento Bom Jesus do Galho ",3107802,MG,Bom Jesus do Galho,15,Quartel do Sacramento,-19.8244720395432,-42.3157265526063
"Reves do Belém Bom Jesus do Galho ",3107802,MG,Bom Jesus do Galho,20,Revés do Belém,-19.8244720395432,-42.3157265526063
Bom Repouso,3107901,MG,Bom Repouso,5,Bom Repouso,-22.4768368285268,-46.147882202098
Bom Sucesso,3108008,MG,Bom Sucesso,5,Bom Sucesso,-21.0304160944461,-44.7555027232646
"Macaia Bom Sucesso ",3108008,MG,Bom Sucesso,10,Macaia,-21.0304160944461,-44.7555027232646
Bonfim,3108107,MG,Bonfim,5,Bonfim,-20.3254910996075,-44.232911084905
"Santo Antônio da Vargem Alegre Bonfim ",3108107,MG,Bonfim,10,Santo Antônio da Vargem Alegre,-20.3254910996075,-44.232911084905
Bonfinopolis de Minas,3108206,MG,Bonfinópolis de Minas,5,Bonfinópolis de Minas,-16.5707647860757,-45.988340657155
Bonito de Minas,3108255,MG,Bonito de Minas,5,Bonito de Minas,-15.3238044714657,-44.7580284448541
Borda da Mata,3108305,MG,Borda da Mata,5,Borda da Mata,-22.2724082578295,-46.1671682395357
"Cervo Borda da Mata ",3108305,MG,Borda da Mata,10,Cervo,-22.2724082578295,-46.1671682395357
"Sertãozinho Borda da Mata ",3108305,MG,Borda da Mata,15,Sertãozinho,-22.2724082578295,-46.1671682395357
Botelhos,3108404,MG,Botelhos,5,Botelhos,-21.6516638757349,-46.3954931502591
"Palmeiral Botelhos ",3108404,MG,Botelhos,10,Palmeiral,-21.6516638757349,-46.3954931502591
"São Goncalo de Botelhos Botelhos ",3108404,MG,Botelhos,15,São Gonçalo de Botelhos,-21.6516638757349,-46.3954931502591
Botumirim,3108503,MG,Botumirim,5,Botumirim,-16.8629245518797,-43.0104324369177
"Adao Colares Botumirim ",3108503,MG,Botumirim,10,Adão Colares,-16.8629245518797,-43.0104324369177
"Santa Cruz de Botumirim Botumirim ",3108503,MG,Botumirim,15,Santa Cruz de Botumirim,-16.8629245518797,-43.0104324369177
Bras Pires,3108701,MG,Brás Pires,5,Brás Pires,-20.8484564359993,-43.239122599312
Brasilândia de Minas,3108552,MG,Brasilândia de Minas,5,Brasilândia de Minas,-16.9986005535911,-46.0154017589955
Brasília de Minas,3108602,MG,Brasília de Minas,5,Brasília de Minas,-16.205872688841,-44.4275330930915
"Angicos de Minas Brasília de Minas ",3108602,MG,Brasília de Minas,10,Angicos de Minas,-16.205872688841,-44.4275330930915
"Fernao Dias Brasília de Minas ",3108602,MG,Brasília de Minas,20,Fernão Dias,-16.205872688841,-44.4275330930915
"Retiro de Santo Antônio Brasília de Minas ",3108602,MG,Brasília de Minas,35,Retiro de Santo Antônio,-16.205872688841,-44.4275330930915
"Vargem Grande do Bom Jesus Brasília de Minas ",3108602,MG,Brasília de Minas,40,Vargem Grande do Bom Jesus,-16.205872688841,-44.4275330930915
"Vila de Fátima Brasília de Minas ",3108602,MG,Brasília de Minas,45,Vila de Fátima,-16.205872688841,-44.4275330930915
Braunas,3108800,MG,Braúnas,5,Braúnas,-19.0535966189467,-42.7153526369813
Brazopolis,3108909,MG,Brazópolis,5,Brazópolis,-22.473871,-45.6179988
"Dias Brazopolis ",3108909,MG,Brazópolis,10,Dias,-22.4657522,-45.5611696
"Luminosa Brazopolis ",3108909,MG,Brazópolis,15,Luminosa,-22.5825097,-45.6349673
Brumadinho,3109006,MG,Brumadinho,5,Brumadinho,-20.1441744103499,-44.2001876090636
Aranha Brumadinho,3109006,MG,Brumadinho,10,Aranha,-20.1441744103499,-44.2001876090636
"Conceição de Itagua Brumadinho ",3109006,MG,Brumadinho,15,Conceição de Itaguá,-20.1441744103499,-44.2001876090636
"Piedade do Paraopeba Brumadinho ",3109006,MG,Brumadinho,20,Piedade do Paraopeba,-20.1441744103499,-44.2001876090636
"São José do Paraopeba Brumadinho ",3109006,MG,Brumadinho,25,São José do Paraopeba,-20.1441744103499,-44.2001876090636
Bueno Brandao,3109105,MG,Bueno Brandão,5,Bueno Brandão,-22.4361670055923,-46.353388087214
Buenopolis,3109204,MG,Buenópolis,5,Buenópolis,-17.8742562843054,-44.1807884588015
"Curimatai Buenopolis ",3109204,MG,Buenópolis,10,Curimataí,-17.8742562843054,-44.1807884588015
Bugre,3109253,MG,Bugre,5,Bugre,-19.4222126750432,-42.2594570122598
Buritis,3109303,MG,Buritis,5,Buritis,-15.626505489997,-46.424040801173
"Serra Bonita Buritis ",3109303,MG,Buritis,10,Serra Bonita,-15.626505489997,-46.424040801173
"São Pedro do Passa Tres Buritis ",3109303,MG,Buritis,20,São Pedro do Passa Três,-15.626505489997,-46.424040801173
Buritizeiro,3109402,MG,Buritizeiro,5,Buritizeiro,-17.3594207725782,-44.9551936818752
"Cachoeira do Manteiga Buritizeiro ",3109402,MG,Buritizeiro,10,Cachoeira do Manteiga,-17.3594207725782,-44.9551936818752
"Paredao de Minas Buritizeiro ",3109402,MG,Buritizeiro,15,Paredão de Minas,-17.3594207725782,-44.9551936818752
"Sambaiba de Minas Buritizeiro ",3109402,MG,Buritizeiro,20,Sambaíba de Minas,-17.3594207725782,-44.9551936818752
Cabeceira Grande,3109451,MG,Cabeceira Grande,5,Cabeceira Grande,-16.028274803193,-47.0849893051072
"Palmital de Minas Cabeceira Grande ",3109451,MG,Cabeceira Grande,20,Palmital de Minas,-16.028274803193,-47.0849893051072
Cabo Verde,3109501,MG,Cabo Verde,5,Cabo Verde,-21.4692919515993,-46.3999705002413
"Serra dos Lemes Cabo Verde ",3109501,MG,Cabo Verde,10,Serra dos Lemes,-21.4692919515993,-46.3999705002413
"São Bartolomeu de Minas Cabo Verde ",3109501,MG,Cabo Verde,15,São Bartolomeu de Minas,-21.4692919515993,-46.3999705002413
Cachoeira da Prata,3109600,MG,Cachoeira da Prata,5,Cachoeira da Prata,-19.5264353262956,-44.4410509536478
Cachoeira de Minas,3109709,MG,Cachoeira de Minas,5,Cachoeira de Minas,-22.3539840611907,-45.7821375141066
"Itaim Cachoeira de Minas ",3109709,MG,Cachoeira de Minas,10,Itaim,-22.3539840611907,-45.7821375141066
Cachoeira de Pajeu,3102704,MG,Cachoeira de Pajeú,5,Cachoeira de Pajeú,-15.9651758417422,-41.4964103683588
"Aguas Altas Cachoeira de Pajeu ",3102704,MG,Cachoeira de Pajeú,10,Águas Altas,-15.9651758417422,-41.4964103683588
Cachoeira Dourada,3109808,MG,Cachoeira Dourada,5,Cachoeira Dourada,-18.4890356139803,-49.4709176635814
Caetanopolis,3109907,MG,Caetanópolis,5,Caetanópolis,-19.2937130281333,-44.4130373375318
Caete,3110004,MG,Caeté,5,Caeté,-19.8871411326048,-43.6647873511184
"Antônio dos Santos Caete ",3110004,MG,Caeté,10,Antônio dos Santos,-19.8871411326048,-43.6647873511184
"Morro Vermelho Caete ",3110004,MG,Caeté,15,Morro Vermelho,-19.8871411326048,-43.6647873511184
"Penedia Caete ",3110004,MG,Caeté,20,Penedia,-19.8871411326048,-43.6647873511184
"Rocas Novas Caete ",3110004,MG,Caeté,25,Roças Novas,-19.8871411326048,-43.6647873511184
Caiana,3110103,MG,Caiana,5,Caiana,-20.6968289779179,-41.9229821868914
Cajuri,3110202,MG,Cajuri,5,Cajuri,-20.7889426719043,-42.7939202734051
"Paraguai Cajuri ",3110202,MG,Cajuri,10,Paraguai,-20.7889426719043,-42.7939202734051
Caldas,3110301,MG,Caldas,5,Caldas,-21.9233359583344,-46.3877891098818
"Laranjeiras de Caldas Caldas ",3110301,MG,Caldas,7,Laranjeiras de Caldas,-21.9233359583344,-46.3877891098818
"Santana de Caldas Caldas ",3110301,MG,Caldas,10,Santana de Caldas,-21.9233359583344,-46.3877891098818
"São Pedro de Caldas Caldas ",3110301,MG,Caldas,15,São Pedro de Caldas,-21.9233359583344,-46.3877891098818
Camacho,3110400,MG,Camacho,5,Camacho,-20.6269158527808,-45.1587926720343
Camanducaia,3110509,MG,Camanducaia,5,Camanducaia,-22.7567463577539,-46.146863289284
"Monte Verde Camanducaia ",3110509,MG,Camanducaia,10,Monte Verde,-22.7567463577539,-46.146863289284
"São Mateus de Minas Camanducaia ",3110509,MG,Camanducaia,15,São Mateus de Minas,-22.7567463577539,-46.146863289284
Cambui,3110608,MG,Cambuí,5,Cambuí,-22.6110971633733,-46.0580193633379
Cambuquira,3110707,MG,Cambuquira,5,Cambuquira,-21.8554097676123,-45.2925205085194
Campanario,3110806,MG,Campanário,5,Campanário,-18.2411235319382,-41.7301317866171
Campanha,3110905,MG,Campanha,5,Campanha,-21.8353567040277,-45.3984486738569
Campestre,3111002,MG,Campestre,5,Campestre,-8.84837535315291,-35.5667177264544
Campina Verde,3111101,MG,Campina Verde,5,Campina Verde,-19.5354556028876,-49.4811690506139
"Honoropolis Campina Verde ",3111101,MG,Campina Verde,10,Honorópolis,-19.5354556028876,-49.4811690506139
Campo Azul,3111150,MG,Campo Azul,5,Campo Azul,-16.5040634892558,-44.8118582138383
Campo Belo,3111200,MG,Campo Belo,5,Campo Belo,-20.8953162458046,-45.2758613611232
"Porto dos Mendes Campo Belo ",3111200,MG,Campo Belo,10,Porto dos Mendes,-20.8953162458046,-45.2758613611232
Campo do Meio,3111309,MG,Campo do Meio,5,Campo do Meio,-21.109325717622,-45.8307571404523
Campo Florido,3111408,MG,Campo Florido,5,Campo Florido,-19.7654453932829,-48.5730034681848
Campos Altos,3111507,MG,Campos Altos,5,Campos Altos,-19.6988958417622,-46.1737099168343
"São Jeronimo dos Pocoes Campos Altos ",3111507,MG,Campos Altos,10,São Jerônimo dos Poções,-19.6988958417622,-46.1737099168343
Campos Gerais,3111606,MG,Campos Gerais,5,Campos Gerais,-21.238697907437,-45.7569073652198
"Corrego do Ouro Campos Gerais ",3111606,MG,Campos Gerais,10,Córrego do Ouro,-21.238697907437,-45.7569073652198
Cana Verde,3111903,MG,Cana Verde,5,Cana Verde,-21.0234516663837,-45.185925314678
Canaa,3111705,MG,Canaã,5,Canaã,-20.6873760386752,-42.6130114531103
Canapolis,3111804,MG,Canápolis,5,Canápolis,-18.7216637220479,-49.2040544543899
Candeias,3112000,MG,Candeias,5,Candeias,-12.6719227052682,-38.5435962675254
Cantagalo,3112059,MG,Cantagalo,5,Cantagalo,-25.3743173860408,-52.1266876349423
Caparao,3112109,MG,Caparaó,5,Caparaó,-20.5255883673675,-41.9071902950208
Capela Nova,3112208,MG,Capela Nova,5,Capela Nova,-20.9166679077144,-43.6124218663921
Capelinha,3112307,MG,Capelinha,5,Capelinha,-17.6953852202015,-42.5160753734565
Capetinga,3112406,MG,Capetinga,5,Capetinga,-20.6204991278605,-47.0574368006836
"Goianases Capetinga ",3112406,MG,Capetinga,10,Goianases,-20.6204991278605,-47.0574368006836
Capim Branco,3112505,MG,Capim Branco,5,Capim Branco,-19.5455422093287,-44.1331662414131
Capinopolis,3112604,MG,Capinópolis,5,Capinópolis,-18.6822937337555,-49.5744822393992
Capitao Andrade,3112653,MG,Capitão Andrade,5,Capitão Andrade,-19.0790244575707,-41.8650973290854
Capitao Eneas,3112703,MG,Capitão Enéas,5,Capitão Enéas,-16.3209151363553,-43.7054128998982
"Cacarema Capitao Eneas ",3112703,MG,Capitão Enéas,10,Caçarema,-16.3209151363553,-43.7054128998982
"Santana da Serra Capitao Eneas ",3112703,MG,Capitão Enéas,20,Santana da Serra,-16.3209151363553,-43.7054128998982
Capitolio,3112802,MG,Capitólio,5,Capitólio,-20.6146635994975,-46.0545138880806
Caputira,3112901,MG,Caputira,5,Caputira,-20.1708899894667,-42.2719878999316
Carai,3113008,MG,Caraí,5,Caraí,-17.1929041661081,-41.6983072511944
"Marambainha Carai ",3113008,MG,Caraí,10,Marambainha,-17.1929041661081,-41.6983072511944
"Maranhão Carai ",3113008,MG,Caraí,12,Maranhão,-17.1929041661081,-41.6983072511944
"Ponto do Marambaia Carai ",3113008,MG,Caraí,15,Ponto do Marambaia,-17.1929041661081,-41.6983072511944
Caranaiba,3113107,MG,Caranaíba,5,Caranaíba,-20.8702194155652,-43.7394664788539
Carandai,3113206,MG,Carandaí,5,Carandaí,-20.9543694555465,-43.8054753702247
"Hermilo Alves Carandai ",3113206,MG,Carandaí,10,Hermilo Alves,-20.9543694555465,-43.8054753702247
"Pedra do Sino Carandai ",3113206,MG,Carandaí,15,Pedra do Sino,-20.9543694555465,-43.8054753702247
Carangola,3113305,MG,Carangola,5,Carangola,-20.732550508322,-42.0322245231296
Alvorada Carangola,3113305,MG,Carangola,10,Alvorada,-20.732550508322,-42.0322245231296
"Lacerdinha Carangola ",3113305,MG,Carangola,20,Lacerdinha,-20.732550508322,-42.0322245231296
"Ponte Alta de Minas Carangola ",3113305,MG,Carangola,25,Ponte Alta de Minas,-20.732550508322,-42.0322245231296
Caratinga,3113404,MG,Caratinga,5,Caratinga,-19.7896349230665,-42.1437070451993
Carbonita,3113503,MG,Carbonita,5,Carbonita,-17.5302458345986,-43.0144602004652
Careacu,3113602,MG,Careaçu,5,Careaçu,-22.0380848512152,-45.6876774051204
Carlos Chagas,3113701,MG,Carlos Chagas,5,Carlos Chagas,-17.7033310440365,-40.7673997960806
"Epaminondas Otoni Carlos Chagas ",3113701,MG,Carlos Chagas,10,Epaminondas Otoni,-17.7033310440365,-40.7673997960806
"Presidente Pena Carlos Chagas ",3113701,MG,Carlos Chagas,15,Presidente Pena,-17.7033310440365,-40.7673997960806
Carmesia,3113800,MG,Carmésia,5,Carmésia,-19.0870863874439,-43.1458403032499
Carmo da Cachoeira,3113909,MG,Carmo da Cachoeira,5,Carmo da Cachoeira,-21.4610604282587,-45.2246230941763
"Palmital do Cervo Carmo da Cachoeira ",3113909,MG,Carmo da Cachoeira,20,Palmital do Cervo,-21.4610604282587,-45.2246230941763
Carmo da Mata,3114006,MG,Carmo da Mata,5,Carmo da Mata,-20.5592100019754,-44.8683827332713
Carmo de Minas,3114105,MG,Carmo de Minas,5,Carmo de Minas,-22.1181266345725,-45.1327634855743
Carmo do Cajuru,3114204,MG,Carmo do Cajuru,5,Carmo do Cajuru,-20.186093830724,-44.771478137316
"Bom Jesus de Angicos Carmo do Cajuru ",3114204,MG,Carmo do Cajuru,8,Bom Jesus de Angicos,-20.186093830724,-44.771478137316
"Santo Antônio da Serra Carmo do Cajuru ",3114204,MG,Carmo do Cajuru,9,Santo Antônio da Serra,-20.186093830724,-44.771478137316
"São José dos Salgados Carmo do Cajuru ",3114204,MG,Carmo do Cajuru,10,São José dos Salgados,-20.186093830724,-44.771478137316
Carmo do Paranaiba,3114303,MG,Carmo do Paranaíba,5,Carmo do Paranaíba,-18.9972890251417,-46.3142888776277
"Quintinos Carmo do Paranaiba ",3114303,MG,Carmo do Paranaíba,10,Quintinos,-18.9972890251417,-46.3142888776277
Carmo do Rio Claro,3114402,MG,Carmo do Rio Claro,5,Carmo do Rio Claro,-20.9729965301287,-46.1219647340897
"Itaci Carmo do Rio Claro ",3114402,MG,Carmo do Rio Claro,10,Itaci,-20.9729965301287,-46.1219647340897
"Vilelandia Carmo do Rio Claro ",3114402,MG,Carmo do Rio Claro,20,Vilelândia,-20.9729965301287,-46.1219647340897
Carmopolis de Minas,3114501,MG,Carmópolis de Minas,5,Carmópolis de Minas,-20.5396421743262,-44.6325277075291
Carneirinho,3114550,MG,Carneirinho,5,Carneirinho,-19.6973263172808,-50.6914274936605
"Estrela da Barra Carneirinho ",3114550,MG,Carneirinho,10,Estrela da Barra,-19.6973263172808,-50.6914274936605
"Fátima do Pontal Carneirinho ",3114550,MG,Carneirinho,17,Fátima do Pontal,-19.6973263172808,-50.6914274936605
"São Sebastião do Pontal Carneirinho ",3114550,MG,Carneirinho,20,São Sebastião do Pontal,-19.6973263172808,-50.6914274936605
Carrancas,3114600,MG,Carrancas,5,Carrancas,-21.4916256213918,-44.6436090229114
Carvalhopolis,3114709,MG,Carvalhópolis,5,Carvalhópolis,-21.7760729207397,-45.8456391849518
Carvalhos,3114808,MG,Carvalhos,5,Carvalhos,-21.9967053815743,-44.466015072793
"Franceses Carvalhos ",3114808,MG,Carvalhos,10,Franceses,-21.9967053815743,-44.466015072793
Casa Grande,3114907,MG,Casa Grande,5,Casa Grande,-20.7934512867946,-43.9314665941035
Cascalho Rico,3115003,MG,Cascalho Rico,5,Cascalho Rico,-18.5785902482689,-47.8759987830325
Cassia,3115102,MG,Cássia,5,Cássia,-20.5828560244396,-46.924035860642
Cataguases,3115300,MG,Cataguases,5,Cataguases,-21.3892484232128,-42.6920846108201
Aracati de Minas Cataguases,3115300,MG,Cataguases,7,Aracati de Minas,-21.3892484232128,-42.6920846108201
"Cataguarino Cataguases ",3115300,MG,Cataguases,10,Cataguarino,-21.3892484232128,-42.6920846108201
"Glória de Cataguases Cataguases ",3115300,MG,Cataguases,12,Glória de Cataguases,-21.3892484232128,-42.6920846108201
"Sereno Cataguases ",3115300,MG,Cataguases,15,Sereno,-21.3892484232128,-42.6920846108201
"Vista Alegre Cataguases ",3115300,MG,Cataguases,20,Vista Alegre,-21.3892484232128,-42.6920846108201
Catas Altas,3115359,MG,Catas Altas,5,Catas Altas,-20.0748929431654,-43.4148057349597
Catas Altas da Noruega,3115409,MG,Catas Altas da Noruega,5,Catas Altas da Noruega,-20.6870876210355,-43.5050592004737
Catuji,3115458,MG,Catuji,5,Catuji,-17.3010807061062,-41.523126865366
Catuti,3115474,MG,Catuti,5,Catuti,-15.3573788763445,-42.9635229642327
"Barreiro Branco Catuti ",3115474,MG,Catuti,10,Barreiro Branco,-15.3573788763445,-42.9635229642327
Caxambu,3115508,MG,Caxambu,5,Caxambu,-21.9793115398299,-44.9314985913756
Cedro do Abaete,3115607,MG,Cedro do Abaeté,5,Cedro do Abaeté,-19.1471676520828,-45.7121949359924
Central de Minas,3115706,MG,Central de Minas,5,Central de Minas,-18.7574605376829,-41.3104050536671
"Floresta Central de Minas ",3115706,MG,Central de Minas,10,Floresta,-18.7574605376829,-41.3104050536671
Centralina,3115805,MG,Centralina,5,Centralina,-18.5853855112475,-49.1962825701454
Chacara,3115904,MG,Chácara,5,Chácara,-21.6729132233441,-43.2187700295011
Chale,3116001,MG,Chalé,5,Chalé,-20.0442533445944,-41.6922070079875
"Professor Sperber Chale ",3116001,MG,Chalé,10,Professor Sperber,-20.0442533445944,-41.6922070079875
Chapada do Norte,3116100,MG,Chapada do Norte,5,Chapada do Norte,-17.0866959813483,-42.5407487605038
"Cachoeira do Norte Chapada do Norte ",3116100,MG,Chapada do Norte,10,Cachoeira do Norte,-17.0866959813483,-42.5407487605038
"Granjas do Norte Chapada do Norte ",3116100,MG,Chapada do Norte,20,Granjas do Norte,-17.0866959813483,-42.5407487605038
"Santa Rita do Aracuai Chapada do Norte ",3116100,MG,Chapada do Norte,30,Santa Rita do Araçuaí,-17.0866959813483,-42.5407487605038
"São Sebastião da Boa Vista Chapada do Norte ",3116100,MG,Chapada do Norte,40,São Sebastião da Boa Vista,-17.0866959813483,-42.5407487605038
Chapada Gaucha,3116159,MG,Chapada Gaúcha,5,Chapada Gaúcha,-15.2998087151246,-45.6255844399663
"Serra das Araras Chapada Gaucha ",3116159,MG,Chapada Gaúcha,20,Serra das Araras,-15.2998087151246,-45.6255844399663
"Vila Bom Jesus de Minas Chapada Gaucha ",3116159,MG,Chapada Gaúcha,30,Vila Bom Jesus de Minas,-15.2998087151246,-45.6255844399663
"Vila Retiro Velho Chapada Gaucha ",3116159,MG,Chapada Gaúcha,35,Vila Retiro Velho,-15.2998087151246,-45.6255844399663
Chiador,3116209,MG,Chiador,5,Chiador,-22.0037126009454,-43.0590388470773
"Penha Longa Chiador ",3116209,MG,Chiador,10,Penha Longa,-22.0037126009454,-43.0590388470773
Cipotanea,3116308,MG,Cipotânea,5,Cipotânea,-20.9055357479024,-43.367977207819
Claraval,3116407,MG,Claraval,5,Claraval,-20.398376080996,-47.2877612861721
Claro dos Pocoes,3116506,MG,Claro dos Poções,5,Claro dos Poções,-17.077685022881,-44.2087100149448
"Vista Alegre Claro dos Pocoes ",3116506,MG,Claro dos Poções,10,Vista Alegre,-17.077685022881,-44.2087100149448
Claudio,3116605,MG,Cláudio,5,Cláudio,-20.4445746550274,-44.7684225278902
"Monsenhor João Alexandre Claudio ",3116605,MG,Cláudio,10,Monsenhor João Alexandre,-20.4445746550274,-44.7684225278902
Coimbra,3116704,MG,Coimbra,5,Coimbra,-20.8586595280143,-42.805939102564
Coluna,3116803,MG,Coluna,5,Coluna,-18.2204050351578,-42.8436545122746
Comendador Gomes,3116902,MG,Comendador Gomes,5,Comendador Gomes,-19.7002146271412,-49.0814302053372
Comercinho,3117009,MG,Comercinho,5,Comercinho,-16.2965954747835,-41.7911317349164
"Agua Branca de Minas Comercinho ",3117009,MG,Comercinho,10,Água Branca de Minas,-16.2965954747835,-41.7911317349164
Conceição da Aparecida,3117108,MG,Conceição da Aparecida,5,Conceição da Aparecida,-21.0966200708181,-46.203127249623
Conceição da Barra de Minas,3115201,MG,Conceição da Barra de Minas,5,Conceição da Barra de Minas,-21.1317693674981,-44.4778082132301
Conceição das Alagoas,3117306,MG,Conceição das Alagoas,5,Conceição das Alagoas,-19.9231135061827,-48.381874129465
"Poncianos Conceição das Alagoas ",3117306,MG,Conceição das Alagoas,10,Poncianos,-19.9231135061827,-48.381874129465
Conceição das Pedras,3117207,MG,Conceição das Pedras,5,Conceição das Pedras,-22.1611757087795,-45.4536794627182
Conceição de Ipanema,3117405,MG,Conceição de Ipanema,5,Conceição de Ipanema,-19.9307803586776,-41.6924492631517
Conceição do Mato Dentro,3117504,MG,Conceição do Mato Dentro,5,Conceição do Mato Dentro,-19.0451899945408,-43.423435767518
Conceição do Pará,3117603,MG,Conceição do Pará,5,Conceição do Pará,-19.7490562324375,-44.8958756116422
Conceição do Rio Verde,3117702,MG,Conceição do Rio Verde,5,Conceição do Rio Verde,-21.8776655592195,-45.0837688660576
"Aguas de Contendas Conceição do Rio Verde ",3117702,MG,Conceição do Rio Verde,10,Águas de Contendas,-21.8776655592195,-45.0837688660576
Conceição dos Ouros,3117801,MG,Conceição dos Ouros,5,Conceição dos Ouros,-22.4174754897215,-45.7963266584857
Conego Marinho,3117836,MG,Cônego Marinho,5,Cônego Marinho,-15.2962703181641,-44.4151547108268
"Cruz dos Araújos Conego Marinho ",3117836,MG,Cônego Marinho,15,Cruz dos Araújos,-15.2962703181641,-44.4151547108268
"Olhos d Agua do Bom Jesus Conego Marinho ",3117836,MG,Cônego Marinho,25,Olhos d'Água do Bom Jesus,-15.2962703181641,-44.4151547108268
Confins,3117876,MG,Confins,5,Confins,-19.6299482494053,-43.9955960875638
Congonhal,3117900,MG,Congonhal,5,Congonhal,-22.152560758106,-46.0536623723338
Congonhas,3118007,MG,Congonhas,5,Congonhas,-20.5046427885581,-43.8568926496971
Alto Maranhão Congonhas,3118007,MG,Congonhas,10,Alto Maranhão,-20.5046427885581,-43.8568926496971
"Lobo Leite Congonhas ",3118007,MG,Congonhas,15,Lobo Leite,-20.5046427885581,-43.8568926496971
Congonhas do Norte,3118106,MG,Congonhas do Norte,5,Congonhas do Norte,-18.8164519608161,-43.6876316327273
Conquista,3118205,MG,Conquista,5,Conquista,-19.9369306256422,-47.5432832203071
"Guaxima Conquista ",3118205,MG,Conquista,10,Guaxima,-19.9369306256422,-47.5432832203071
"Jubai Conquista ",3118205,MG,Conquista,15,Jubaí,-19.9369306256422,-47.5432832203071
Conselheiro Lafaiete,3118304,MG,Conselheiro Lafaiete,5,Conselheiro Lafaiete,-20.6608517994441,-43.7884446647199
"Buarque de Macedo Conselheiro Lafaiete ",3118304,MG,Conselheiro Lafaiete,10,Buarque de Macedo,-20.6608517994441,-43.7884446647199
Conselheiro Pena,3118403,MG,Conselheiro Pena,5,Conselheiro Pena,-19.1756232014514,-41.4719740204006
"Barra do Cuiete Conselheiro Pena ",3118403,MG,Conselheiro Pena,15,Barra do Cuieté,-19.1756232014514,-41.4719740204006
"Bueno Conselheiro Pena ",3118403,MG,Conselheiro Pena,20,Bueno,-19.1756232014514,-41.4719740204006
"Cuiete Velho Conselheiro Pena ",3118403,MG,Conselheiro Pena,25,Cuieté Velho,-19.1756232014514,-41.4719740204006
"Ferruginha Conselheiro Pena ",3118403,MG,Conselheiro Pena,35,Ferruginha,-19.1756232014514,-41.4719740204006
"Penha do Norte Conselheiro Pena ",3118403,MG,Conselheiro Pena,45,Penha do Norte,-19.1756232014514,-41.4719740204006
Consolacao,3118502,MG,Consolação,5,Consolação,-22.5504650358103,-45.9222507202093
Contagem,3118601,MG,Contagem,5,Contagem,-19.9434459056633,-44.0663446487239
"Parque Industrial Contagem ",3118601,MG,Contagem,10,Parque Industrial,-19.9434459056633,-44.0663446487239
Coqueiral,3118700,MG,Coqueiral,5,Coqueiral,-21.1865745236631,-45.440805566821
"Frei Eustaquio Coqueiral ",3118700,MG,Coqueiral,10,Frei Eustáquio,-21.1865745236631,-45.440805566821
Coracao de Jesus,3118809,MG,Coração de Jesus,5,Coração de Jesus,-16.6893234476866,-44.3584952946502
Alvacao Coracao de Jesus,3118809,MG,Coração de Jesus,10,Alvação,-16.6893234476866,-44.3584952946502
"Aristides Batista Coracao de Jesus ",3118809,MG,Coração de Jesus,13,Aristides Batista,-16.6893234476866,-44.3584952946502
"Luiz Pires de Minas Coracao de Jesus ",3118809,MG,Coração de Jesus,15,Luiz Pires de Minas,-16.6893234476866,-44.3584952946502
"Ponte dos Ciganos Coracao de Jesus ",3118809,MG,Coração de Jesus,20,Ponte dos Ciganos,-16.6893234476866,-44.3584952946502
"São Geraldo Coracao de Jesus ",3118809,MG,Coração de Jesus,25,São Geraldo,-16.6893234476866,-44.3584952946502
"São Joaquim Coracao de Jesus ",3118809,MG,Coração de Jesus,40,São Joaquim,-16.6893234476866,-44.3584952946502
Cordisburgo,3118908,MG,Cordisburgo,5,Cordisburgo,-19.1285333206637,-44.3220674519339
"Lagoa Bonita Cordisburgo ",3118908,MG,Cordisburgo,10,Lagoa Bonita,-19.1285333206637,-44.3220674519339
Cordislandia,3119005,MG,Cordislândia,5,Cordislândia,-21.7912077552474,-45.7005297277009
Corinto,3119104,MG,Corinto,5,Corinto,-18.3635162871045,-44.4562256497032
Beltrao Corinto,3119104,MG,Corinto,8,Beltrão,-18.3635162871045,-44.4562256497032
"Contria Corinto ",3119104,MG,Corinto,10,Contria,-18.3635162871045,-44.4562256497032
Coroaci,3119203,MG,Coroaci,5,Coroaci,-18.6180835058572,-42.283027891501
"Conceição de Tronqueiras Coroaci ",3119203,MG,Coroaci,10,Conceição de Tronqueiras,-18.6180835058572,-42.283027891501
"São Sebastião do Bugre Coroaci ",3119203,MG,Coroaci,15,São Sebastião do Bugre,-18.6180835058572,-42.283027891501
Coromandel,3119302,MG,Coromandel,5,Coromandel,-18.4738505975887,-47.2015477282097
"Alegre Coromandel ",3119302,MG,Coromandel,10,Alegre,-18.4738505975887,-47.2015477282097
"Lagamar dos Coqueiros Coromandel ",3119302,MG,Coromandel,12,Lagamar dos Coqueiros,-18.4738505975887,-47.2015477282097
"Pantano de Santa Cruz Coromandel ",3119302,MG,Coromandel,13,Pântano de Santa Cruz,-18.4738505975887,-47.2015477282097
"Mateiro Coromandel ",3119302,MG,Coromandel,14,Mateiro,-18.4738505975887,-47.2015477282097
"Santa Rosa dos Dourados Coromandel ",3119302,MG,Coromandel,15,Santa Rosa dos Dourados,-18.4738505975887,-47.2015477282097
Coronel Fabriciano,3119401,MG,Coronel Fabriciano,5,Coronel Fabriciano,-19.5250528393467,-42.624346577298
"Senador Melo Viana Coronel Fabriciano ",3119401,MG,Coronel Fabriciano,10,Senador Melo Viana,-19.5250528393467,-42.624346577298
Coronel Murta,3119500,MG,Coronel Murta,5,Coronel Murta,-16.6102682357247,-42.1848038231002
"Barra do Salinas Coronel Murta ",3119500,MG,Coronel Murta,7,Barra do Salinas,-16.6102682357247,-42.1848038231002
"Freire Cardoso Coronel Murta ",3119500,MG,Coronel Murta,10,Freire Cardoso,-16.6102682357247,-42.1848038231002
Coronel Pacheco,3119609,MG,Coronel Pacheco,5,Coronel Pacheco,-21.5764151525441,-43.2688579711124
Coronel Xavier Chaves,3119708,MG,Coronel Xavier Chaves,5,Coronel Xavier Chaves,-21.0245950067461,-44.2286242458218
Corrego Danta,3119807,MG,Córrego Danta,5,Córrego Danta,-19.8264100219361,-45.8984710283885
"Cachoeirinha Corrego Danta ",3119807,MG,Córrego Danta,10,Cachoeirinha,-19.8264100219361,-45.8984710283885
Corrego do Bom Jesus,3119906,MG,Córrego do Bom Jesus,5,Córrego do Bom Jesus,-22.6299218873908,-46.017909207626
Corrego Fundo,3119955,MG,Córrego Fundo,5,Córrego Fundo,-20.4555253223239,-45.5533954460448
Corrego Novo,3120003,MG,Córrego Novo,5,Córrego Novo,-19.8347854823175,-42.4001378803437
Couto de Magalhães de Minas,3120102,MG,Couto de Magalhães de Minas,5,Couto de Magalhães de Minas,-18.0720593059942,-43.4753487750125
Crisolita,3120151,MG,Crisólita,5,Crisólita,-17.2375343951009,-40.914895278108
"Nova Santa Luzia Crisolita ",3120151,MG,Crisólita,20,Nova Santa Luzia,-17.2375343951009,-40.914895278108
Cristais,3120201,MG,Cristais,5,Cristais,-20.8752331535244,-45.5185038489986
Cristalia,3120300,MG,Cristália,5,Cristália,-16.7126340057198,-42.8595509120255
Cristiano Otoni,3120409,MG,Cristiano Otoni,5,Cristiano Otoni,-20.8408523330588,-43.7978363805106
"São Caetano Cristiano Otoni ",3120409,MG,Cristiano Otoni,20,São Caetano,-20.8408523330588,-43.7978363805106
Cristina,3120508,MG,Cristina,5,Cristina,-22.2083205226708,-45.2628086074469
Crucilandia,3120607,MG,Crucilândia,5,Crucilândia,-20.3932917693508,-44.3378369394148
Cruzeiro da Fortaleza,3120706,MG,Cruzeiro da Fortaleza,5,Cruzeiro da Fortaleza,-18.9386473163882,-46.6733926485072
"Brejo Bonito Cruzeiro da Fortaleza ",3120706,MG,Cruzeiro da Fortaleza,10,Brejo Bonito,-18.9386473163882,-46.6733926485072
Cruzilia,3120805,MG,Cruzília,5,Cruzília,-21.8389511788947,-44.8110234836963
Cuparaque,3120839,MG,Cuparaque,5,Cuparaque,-18.9666415321382,-41.1031257418177
"Aldeia Cuparaque ",3120839,MG,Cuparaque,10,Aldeia,-18.9666415321382,-41.1031257418177
Curral de Dentro,3120870,MG,Curral de Dentro,5,Curral de Dentro,-15.9393267809759,-41.8559797796325
"Maristela de Minas Curral de Dentro ",3120870,MG,Curral de Dentro,20,Maristela de Minas,-15.9393267809759,-41.8559797796325
Curvelo,3120904,MG,Curvelo,5,Curvelo,-18.7554807216307,-44.4283989683234
"Anguereta Curvelo ",3120904,MG,Curvelo,10,Angueretá,-18.7554807216307,-44.4283989683234
"J.K. Curvelo ",3120904,MG,Curvelo,12,J.K.,-18.7554807216307,-44.4283989683234
"Santa Rita do Cedro Curvelo ",3120904,MG,Curvelo,15,Santa Rita do Cedro,-18.7554807216307,-44.4283989683234
"Tomas Gonzaga Curvelo ",3120904,MG,Curvelo,20,Tomás Gonzaga,-18.7554807216307,-44.4283989683234
Datas,3121001,MG,Datas,5,Datas,-18.4533026488235,-43.656714638014
Delfim Moreira,3121100,MG,Delfim Moreira,5,Delfim Moreira,-22.5020087460167,-45.2725963577217
Delfinopolis,3121209,MG,Delfinópolis,5,Delfinópolis,-20.3458462167345,-46.8581796122359
Babilonia Delfinopolis,3121209,MG,Delfinópolis,10,Babilônia,-20.3458462167345,-46.8581796122359
"Olhos D Agua da Canastra Delfinopolis ",3121209,MG,Delfinópolis,20,Olhos D'Água da Canastra,-20.3458462167345,-46.8581796122359
Delta,3121258,MG,Delta,5,Delta,-19.9774726891388,-47.7729714324773
Descoberto,3121308,MG,Descoberto,5,Descoberto,-21.4602039706987,-42.9720691787786
Desterro de Entre Rios,3121407,MG,Desterro de Entre Rios,5,Desterro de Entre Rios,-20.6546306803958,-44.3436660058815
"Pereirinhas Desterro de Entre Rios ",3121407,MG,Desterro de Entre Rios,7,Pereirinhas,-20.6546306803958,-44.3436660058815
"São Sebastião do Gil Desterro de Entre Rios ",3121407,MG,Desterro de Entre Rios,10,São Sebastião do Gil,-20.6546306803958,-44.3436660058815
Desterro do Melo,3121506,MG,Desterro do Melo,5,Desterro do Melo,-21.1471785182012,-43.5196002211704
Diamantina,3121605,MG,Diamantina,5,Diamantina,-18.242092724164,-43.5944568221762
Diogo de Vasconcelos,3121704,MG,Diogo de Vasconcelos,5,Diogo de Vasconcelos,-20.4875057994595,-43.1965768271676
Dionisio,3121803,MG,Dionísio,5,Dionísio,-19.8439966742821,-42.7823684408398
Baixa Verde Dionisio,3121803,MG,Dionísio,8,Baixa Verde,-19.8439966742821,-42.7823684408398
"Conceição de Minas Dionisio ",3121803,MG,Dionísio,10,Conceição de Minas,-19.8439966742821,-42.7823684408398
Divinesia,3121902,MG,Divinésia,5,Divinésia,-20.9900103366548,-43.0110812037762
Divino,3122009,MG,Divino,5,Divino,-20.6129771965043,-42.1477393353315
"Bom Jesus do Divino Divino ",3122009,MG,Divino,10,Bom Jesus do Divino,-20.6129771965043,-42.1477393353315
"Viletes Divino ",3122009,MG,Divino,25,Viletes,-20.6129771965043,-42.1477393353315
Divino das Laranjeiras,3122108,MG,Divino das Laranjeiras,5,Divino das Laranjeiras,-18.7731284728487,-41.4832539383023
"Central de Santa Helena Divino das Laranjeiras ",3122108,MG,Divino das Laranjeiras,10,Central de Santa Helena,-18.7731284728487,-41.4832539383023
Divinolandia de Minas,3122207,MG,Divinolândia de Minas,5,Divinolândia de Minas,-18.8052604137557,-42.6218202062038
Divinopolis,3122306,MG,Divinópolis,5,Divinópolis,-20.142073974582,-44.8938855338723
"Santo Antônio dos Campos Divinopolis ",3122306,MG,Divinópolis,10,Santo Antônio dos Campos,-20.142073974582,-44.8938855338723
Divisa Alegre,3122355,MG,Divisa Alegre,5,Divisa Alegre,-15.7239399549396,-41.3400243277944
Divisa Nova,3122405,MG,Divisa Nova,5,Divisa Nova,-21.5172644643355,-46.2029411062337
Divisopolis,3122454,MG,Divisópolis,5,Divisópolis,-15.7246353600352,-41.0025823969773
Dom Bosco,3122470,MG,Dom Bosco,5,Dom Bosco,-16.6507498918987,-46.2714498987887
Dom Cavati,3122504,MG,Dom Cavati,5,Dom Cavati,-19.3791630318591,-42.1103240464578
Dom Joaquim,3122603,MG,Dom Joaquim,5,Dom Joaquim,-18.9645501866295,-43.2613480039741
"Gororos Dom Joaquim ",3122603,MG,Dom Joaquim,10,Gororós,-18.9645501866295,-43.2613480039741
Dom Silverio,3122702,MG,Dom Silvério,5,Dom Silvério,-20.1622049297377,-42.9708729670396
Dom Vicoso,3122801,MG,Dom Viçoso,5,Dom Viçoso,-22.2536741086805,-45.159168673856
Dona Eusebia,3122900,MG,Dona Eusébia,5,Dona Eusébia,-21.3238746965497,-42.8069340637792
"São Manoel do Guaiacu Dona Eusebia ",3122900,MG,Dona Eusébia,30,São Manoel do Guaiaçu,-21.3238746965497,-42.8069340637792
Dores de Campos,3123007,MG,Dores de Campos,5,Dores de Campos,-21.1040875600453,-44.0230465708887
Dores de Guanhaes,3123106,MG,Dores de Guanhães,5,Dores de Guanhães,-19.054261783513,-42.9267218922717
Dores do Indaia,3123205,MG,Dores do Indaiá,5,Dores do Indaiá,-19.4616294368129,-45.6026558325089
Dores do Turvo,3123304,MG,Dores do Turvo,5,Dores do Turvo,-20.9812733744049,-43.1951945185031
Doresopolis,3123403,MG,Doresópolis,5,Doresópolis,-20.2884509606147,-45.9051968861517
Douradoquara,3123502,MG,Douradoquara,5,Douradoquara,-18.4338340922598,-47.6119749498521
Durande,3123528,MG,Durandé,5,Durandé,-20.2072388771967,-41.794261647372
"São João da Figueira Durande ",3123528,MG,Durandé,15,São João da Figueira,-20.2072388771967,-41.794261647372
"São José da Figueira Durande ",3123528,MG,Durandé,20,São José da Figueira,-20.2072388771967,-41.794261647372
Eloi Mendes,3123601,MG,Elói Mendes,5,Elói Mendes,-21.6093127849259,-45.5664342007897
Engenheiro Caldas,3123700,MG,Engenheiro Caldas,5,Engenheiro Caldas,-19.1981028702941,-42.0498416857745
"Divino do Traira Engenheiro Caldas ",3123700,MG,Engenheiro Caldas,6,Divino do Traíra,-19.1981028702941,-42.0498416857745
"São José do Acacio Engenheiro Caldas ",3123700,MG,Engenheiro Caldas,10,São José do Acácio,-19.1981028702941,-42.0498416857745
Engenheiro Navarro,3123809,MG,Engenheiro Navarro,5,Engenheiro Navarro,-17.2877532077503,-43.9494147387385
Entre Folhas,3123858,MG,Entre Folhas,5,Entre Folhas,-19.6277833509071,-42.2323599753122
Entre Rios de Minas,3123908,MG,Entre Rios de Minas,5,Entre Rios de Minas,-20.6713572038258,-44.0670816812587
"Serra do Camapua Entre Rios de Minas ",3123908,MG,Entre Rios de Minas,10,Serra do Camapuã,-20.6713572038258,-44.0670816812587
Ervalia,3124005,MG,Ervália,5,Ervália,-20.8335065579592,-42.6593674650091
Esmeraldas,3124104,MG,Esmeraldas,5,Esmeraldas,-19.7592007437738,-44.3148069192277
"Andiroba Esmeraldas ",3124104,MG,Esmeraldas,10,Andiroba,-19.7592007437738,-44.3148069192277
"Melo Viana Esmeraldas ",3124104,MG,Esmeraldas,15,Melo Viana,-19.7592007437738,-44.3148069192277
Espera Feliz,3124203,MG,Espera Feliz,5,Espera Feliz,-20.6437078083015,-41.9139350169683
"São José da Pedra Menina Espera Feliz ",3124203,MG,Espera Feliz,10,São José da Pedra Menina,-20.6437078083015,-41.9139350169683
Espinosa,3124302,MG,Espinosa,5,Espinosa,-14.9252718111525,-42.8129818449157
"Itamirim Espinosa ",3124302,MG,Espinosa,10,Itamirim,-14.9252718111525,-42.8129818449157
Espirito Santo do Dourado,3124401,MG,Espírito Santo do Dourado,5,Espírito Santo do Dourado,-22.0475136418497,-45.9540125198564
Estiva,3124500,MG,Estiva,5,Estiva,-22.4630450603543,-46.0163518065517
"Pantano Estiva ",3124500,MG,Estiva,10,Pântano,-22.4630450603543,-46.0163518065517
Estrela Dalva,3124609,MG,Estrela Dalva,5,Estrela Dalva,-21.7422852764394,-42.4583710299194
"Agua Viva Estrela Dalva ",3124609,MG,Estrela Dalva,10,Água Viva,-21.7422852764394,-42.4583710299194
Estrela do Indaia,3124708,MG,Estrela do Indaiá,5,Estrela do Indaiá,-19.52023782207,-45.7924325620025
Bau Estrela do Indaia,3124708,MG,Estrela do Indaiá,10,Baú,-19.52023782207,-45.7924325620025
Estrela do Sul,3124807,MG,Estrela do Sul,5,Estrela do Sul,-18.7412931756593,-47.6889748021455
"Chapada de Minas Estrela do Sul ",3124807,MG,Estrela do Sul,10,Chapada de Minas,-18.7412931756593,-47.6889748021455
"Dolearina Estrela do Sul ",3124807,MG,Estrela do Sul,12,Dolearina,-18.7412931756593,-47.6889748021455
"Santa Rita da Estrela Estrela do Sul ",3124807,MG,Estrela do Sul,15,Santa Rita da Estrela,-18.7412931756593,-47.6889748021455
"São Felix de Estrela Estrela do Sul ",3124807,MG,Estrela do Sul,20,São Félix de Estrela,-18.7412931756593,-47.6889748021455
Eugenopolis,3124906,MG,Eugenópolis,5,Eugenópolis,-21.0972225306709,-42.1922770818769
"Gaviao Eugenopolis ",3124906,MG,Eugenópolis,10,Gavião,-21.0972225306709,-42.1922770818769
"Pinhotiba Eugenopolis ",3124906,MG,Eugenópolis,15,Pinhotiba,-21.0972225306709,-42.1922770818769
"Queirozes Eugenopolis ",3124906,MG,Eugenópolis,20,Queirozes,-21.0972225306709,-42.1922770818769
Ewbank da Camara,3125002,MG,Ewbank da Câmara,5,Ewbank da Câmara,-21.5416361511494,-43.5075913951105
Extrema,3125101,MG,Extrema,5,Extrema,-22.858190072021,-46.3221617403776
Fama,3125200,MG,Fama,5,Fama,-21.4057615290226,-45.8323121024444
Faria Lemos,3125309,MG,Faria Lemos,5,Faria Lemos,-20.8017449434969,-42.0138461766787
Felicio dos Santos,3125408,MG,Felício dos Santos,5,Felício dos Santos,-18.077563117073,-43.2451709347937
Felisburgo,3125606,MG,Felisburgo,5,Felisburgo,-16.6383331500748,-40.7585704995432
Felixlandia,3125705,MG,Felixlândia,5,Felixlândia,-18.7543565615242,-44.8965866173716
"São Geraldo do Salto Felixlandia ",3125705,MG,Felixlândia,8,São Geraldo do Salto,-18.7543565615242,-44.8965866173716
"São José do Buriti Felixlandia ",3125705,MG,Felixlândia,10,São José do Buriti,-18.7543565615242,-44.8965866173716
Fernandes Tourinho,3125804,MG,Fernandes Tourinho,5,Fernandes Tourinho,-19.1510006449856,-42.0809784803541
"Senhora da Penha Fernandes Tourinho ",3125804,MG,Fernandes Tourinho,10,Senhora da Penha,-19.1510006449856,-42.0809784803541
Ferros,3125903,MG,Ferros,5,Ferros,-19.2364195947071,-43.0197136171061
Borba Gato Ferros,3125903,MG,Ferros,10,Borba Gato,-19.2364195947071,-43.0197136171061
"Cubas Ferros ",3125903,MG,Ferros,15,Cubas,-19.2364195947071,-43.0197136171061
"Esmeraldas de Ferros Ferros ",3125903,MG,Ferros,20,Esmeraldas de Ferros,-19.2364195947071,-43.0197136171061
"Santa Rita do Rio do Peixe Ferros ",3125903,MG,Ferros,25,Santa Rita do Rio do Peixe,-19.2364195947071,-43.0197136171061
"Santo Antônio da Fortaleza Ferros ",3125903,MG,Ferros,30,Santo Antônio da Fortaleza,-19.2364195947071,-43.0197136171061
"Sete Cachoeiras Ferros ",3125903,MG,Ferros,35,Sete Cachoeiras,-19.2364195947071,-43.0197136171061
Fervedouro,3125952,MG,Fervedouro,5,Fervedouro,-20.7327756857738,-42.2781805292377
"Bom Jesus do Madeira Fervedouro ",3125952,MG,Fervedouro,10,Bom Jesus do Madeira,-20.7327756857738,-42.2781805292377
"São Pedro do Glória Fervedouro ",3125952,MG,Fervedouro,20,São Pedro do Glória,-20.7327756857738,-42.2781805292377
Florestal,3126000,MG,Florestal,5,Florestal,-19.8945182324972,-44.4301155625427
Formiga,3126109,MG,Formiga,5,Formiga,-20.4648835524537,-45.4264281831415
"Albertos Formiga ",3126109,MG,Formiga,10,Albertos,-20.4648835524537,-45.4264281831415
Baioes Formiga,3126109,MG,Formiga,15,Baiões,-20.4648835524537,-45.4264281831415
"Pontevila Formiga ",3126109,MG,Formiga,25,Pontevila,-20.4648835524537,-45.4264281831415
Formoso,3126208,MG,Formoso,5,Formoso,-14.9517425978891,-46.239979536778
"Goiásminas Formoso ",3126208,MG,Formoso,15,Goiásminas,-14.9517425978891,-46.239979536778
Fortaleza de Minas,3126307,MG,Fortaleza de Minas,5,Fortaleza de Minas,-20.8484925119899,-46.7126434064402
Fortuna de Minas,3126406,MG,Fortuna de Minas,5,Fortuna de Minas,-19.5639009597139,-44.4433970450287
Francisco Badaro,3126505,MG,Francisco Badaró,5,Francisco Badaró,-16.9906912878231,-42.3497731636506
"Tocoios de Minas Francisco Badaro ",3126505,MG,Francisco Badaró,30,Tocoiós de Minas,-16.9906912878231,-42.3497731636506
Francisco Dumont,3126604,MG,Francisco Dumont,5,Francisco Dumont,-17.3199488056432,-44.2342065277647
Francisco Sa,3126703,MG,Francisco Sá,5,Francisco Sá,-16.4756808656879,-43.488735281491
"Canabrava Francisco Sa ",3126703,MG,Francisco Sá,10,Canabrava,-16.4756808656879,-43.488735281491
"Catuni Francisco Sa ",3126703,MG,Francisco Sá,15,Catuni,-16.4756808656879,-43.488735281491
Franciscopolis,3126752,MG,Franciscópolis,5,Franciscópolis,-17.9590435726149,-42.0073128118949
"Antônio Ferreira Franciscopolis ",3126752,MG,Franciscópolis,10,Antônio Ferreira,-17.9590435726149,-42.0073128118949
Frei Gaspar,3126802,MG,Frei Gaspar,5,Frei Gaspar,-18.0711850280915,-41.4294207855596
Frei Inocêncio,3126901,MG,Frei Inocêncio,5,Frei Inocêncio,-18.5617897297728,-41.9012165865176
Frei Lagonegro,3126950,MG,Frei Lagonegro,5,Frei Lagonegro,-18.1650807120668,-42.7652952385537
Fronteira,3127008,MG,Fronteira,5,Fronteira,-20.2883005578685,-49.2042820251303
"Santo Antônio do Rio Grande Fronteira ",3127008,MG,Fronteira,20,Santo Antônio do Rio Grande,-20.2883005578685,-49.2042820251303
Fronteira dos Vales,3127057,MG,Fronteira dos Vales,5,Fronteira dos Vales,-16.8920152174495,-40.9250786594486
Fruta de Leite,3127073,MG,Fruta de Leite,5,Fruta de Leite,-16.1164184229985,-42.5322219360174
Frutal,3127107,MG,Frutal,5,Frutal,-20.0258978750723,-48.9391537102571
"Aparecida de Minas Frutal ",3127107,MG,Frutal,10,Aparecida de Minas,-20.0258978750723,-48.9391537102571
Funilandia,3127206,MG,Funilândia,5,Funilândia,-19.369987332984,-44.0630858803589
Galileia,3127305,MG,Galiléia,5,Galiléia,-19.0054736424555,-41.5361971686177
"Santa Cruz de Galileia Galileia ",3127305,MG,Galiléia,8,Santa Cruz de Galiléia,-19.0054736424555,-41.5361971686177
"Sapucaia do Norte Galileia ",3127305,MG,Galiléia,15,Sapucaia do Norte,-19.0054736424555,-41.5361971686177
Gameleiras,3127339,MG,Gameleiras,5,Gameleiras,-15.0768220675066,-43.119480839155
"Jacu das Piranhas Gameleiras ",3127339,MG,Gameleiras,15,Jacu das Piranhas,-15.0768220675066,-43.119480839155
Glaucilandia,3127354,MG,Glaucilândia,5,Glaucilândia,-16.8502186918182,-43.696405897757
Goiabeira,3127370,MG,Goiabeira,5,Goiabeira,-18.9817133371255,-41.2228216102869
Goiana,3127388,MG,Goianá,5,Goianá,-7.55923185486717,-34.9983762971528
Goncalves,3127404,MG,Gonçalves,5,Gonçalves,-22.6576191871187,-45.8565920384671
Gonzaga,3127503,MG,Gonzaga,5,Gonzaga,-18.824825001353,-42.4772238728792
"Conceição da Brejauba Gonzaga ",3127503,MG,Gonzaga,10,Conceição da Brejaúba,-18.824825001353,-42.4772238728792
Gouveia,3127602,MG,Gouveia,5,Gouveia,-18.4429725027128,-43.7339867457722
Governador Valadares,3127701,MG,Governador Valadares,5,Governador Valadares,-18.8528824033103,-41.9470813340288
Grao Mogol,3127800,MG,Grão Mogol,5,Grão Mogol,-16.5664951547914,-42.888012880146
"Barrocao Grao Mogol ",3127800,MG,Grão Mogol,10,Barrocão,-16.5664951547914,-42.888012880146
"Vale das Cancelas Grao Mogol ",3127800,MG,Grão Mogol,30,Vale das Cancelas,-16.5664951547914,-42.888012880146
"Vila Sítio Grao Mogol ",3127800,MG,Grão Mogol,35,Vila Sítio,-16.5664951547914,-42.888012880146
Grupiara,3127909,MG,Grupiara,5,Grupiara,-18.4930238023097,-47.7247984350215
Guanhaes,3128006,MG,Guanhães,5,Guanhães,-18.777150790233,-42.9370490952478
"Correntinho Guanhaes ",3128006,MG,Guanhães,10,Correntinho,-18.777150790233,-42.9370490952478
"Farias Guanhaes ",3128006,MG,Guanhães,15,Farias,-18.777150790233,-42.9370490952478
"Sapucaia de Guanhaes Guanhaes ",3128006,MG,Guanhães,20,Sapucaia de Guanhães,-18.777150790233,-42.9370490952478
"Taquaral de Guanhaes Guanhaes ",3128006,MG,Guanhães,25,Taquaral de Guanhães,-18.777150790233,-42.9370490952478
Guape,3128105,MG,Guapé,5,Guapé,-20.7567245119628,-45.9183838607042
"Arauna Guape ",3128105,MG,Guapé,10,Araúna,-20.7567245119628,-45.9183838607042
Guaraciaba,3128204,MG,Guaraciaba,5,Guaraciaba,-20.5717035009859,-43.0112816471752
Guaraciama,3128253,MG,Guaraciama,5,Guaraciama,-17.0115274631445,-43.6687777057549
Guaranesia,3128303,MG,Guaranésia,5,Guaranésia,-21.3055603706599,-46.7954912202959
"Santa Cruz do Prata Guaranesia ",3128303,MG,Guaranésia,10,Santa Cruz do Prata,-21.3055603706599,-46.7954912202959
Guarani,3128402,MG,Guarani,5,Guarani,-21.3626691859301,-43.0464566840078
Guarara,3128501,MG,Guarará,5,Guarará,-21.7327203008453,-43.0389524781122
Guarda Mor,3128600,MG,Guarda-Mor,5,Guarda-Mor,-17.7712998977844,-47.1010758534975
Guaxupé,3128709,MG,Guaxupé,5,Guaxupé,-21.3037814647476,-46.7135372309766
Guidoval,3128808,MG,Guidoval,5,Guidoval,-21.1442385033,-42.800817312061
Guimarania,3128907,MG,Guimarânia,5,Guimarânia,-18.8380192150624,-46.7972650323216
Guiricema,3129004,MG,Guiricema,5,Guiricema,-21.0106733747952,-42.7188124697545
"Tuiutinga Guiricema ",3129004,MG,Guiricema,10,Tuiutinga,-21.0106733747952,-42.7188124697545
"Vilas Boas Guiricema ",3129004,MG,Guiricema,15,Vilas Boas,-21.0106733747952,-42.7188124697545
Gurinhata,3129103,MG,Gurinhatã,5,Gurinhatã,-19.2137484368274,-49.786273293982
"Flor de Minas Gurinhata ",3129103,MG,Gurinhatã,10,Flor de Minas,-19.2137484368274,-49.786273293982
Heliodora,3129202,MG,Heliodora,5,Heliodora,-22.0647444405161,-45.5445766340527
Iapu,3129301,MG,Iapu,5,Iapu,-19.4402724492355,-42.2146925147824
"São Sebastião da Barra Iapu ",3129301,MG,Iapu,15,São Sebastião da Barra,-19.4402724492355,-42.2146925147824
Ibertioga,3129400,MG,Ibertioga,5,Ibertioga,-21.4294724820412,-43.9681238350753
Ibia,3129509,MG,Ibiá,5,Ibiá,-19.4751117153569,-46.5386114189874
"Argenita Ibia ",3129509,MG,Ibiá,10,Argenita,-19.4751117153569,-46.5386114189874
"Tobati Ibia ",3129509,MG,Ibiá,15,Tobati,-19.4751117153569,-46.5386114189874
Ibiai,3129608,MG,Ibiaí,5,Ibiaí,-16.8598724483642,-44.9141068387179
"Bom Jesus da Vereda Ibiai ",3129608,MG,Ibiaí,15,Bom Jesus da Vereda,-16.8598724483642,-44.9141068387179
Ibiracatu,3129657,MG,Ibiracatu,5,Ibiracatu,-15.6654666513271,-44.1677094358321
Bonanca Ibiracatu,3129657,MG,Ibiracatu,10,Bonança,-15.6654666513271,-44.1677094358321
"Campo Alegre de Minas Ibiracatu ",3129657,MG,Ibiracatu,15,Campo Alegre de Minas,-15.6654666513271,-44.1677094358321
Ibiraci,3129707,MG,Ibiraci,5,Ibiraci,-20.470154879298,-47.1308034906801
Ibirite,3129806,MG,Ibirité,5,Ibirité,-20.0280377506555,-44.0566646387867
"Parque Durval de Barros Ibirite ",3129806,MG,Ibirité,10,Parque Durval de Barros,-20.0280377506555,-44.0566646387867
Ibitiura de Minas,3129905,MG,Ibitiúra de Minas,5,Ibitiúra de Minas,-22.0570551561833,-46.4376032820573
Ibituruna,3130002,MG,Ibituruna,5,Ibituruna,-21.1464850111516,-44.7384635851603
Icarai de Minas,3130051,MG,Icaraí de Minas,5,Icaraí de Minas,-16.2140127770631,-44.9027768020848
Igarape,3130101,MG,Igarapé,5,Igarapé,-20.0699086840598,-44.3011578802931
Igaratinga,3130200,MG,Igaratinga,5,Igaratinga,-19.9538862483495,-44.7004951348527
"Antunes Igaratinga ",3130200,MG,Igaratinga,10,Antunes,-19.9538862483495,-44.7004951348527
Iguatama,3130309,MG,Iguatama,5,Iguatama,-20.1760739663705,-45.7091401060063
"Corguinhos Iguatama ",3130309,MG,Iguatama,15,Corguinhos,-20.1760739663705,-45.7091401060063
Ijaci,3130408,MG,Ijaci,5,Ijaci,-21.1720656158926,-44.9287829737225
Ilicinea,3130507,MG,Ilicínea,5,Ilicínea,-20.9403890167576,-45.8284636231176
Imbe de Minas,3130556,MG,Imbé de Minas,5,Imbé de Minas,-19.5958756424763,-41.9624807644967
Inconfidentes,3130606,MG,Inconfidentes,5,Inconfidentes,-22.3214871299648,-46.3338013987836
Indaiabira,3130655,MG,Indaiabira,5,Indaiabira,-15.4923847142697,-42.2035848204661
"Barra de Alegria Indaiabira ",3130655,MG,Indaiabira,10,Barra de Alegria,-15.4923847142697,-42.2035848204661
Indianopolis,3130705,MG,Indianópolis,5,Indianópolis,-23.4797105011699,-52.7010569081576
Ingai,3130804,MG,Ingaí,5,Ingaí,-21.4037168147376,-44.9224226367292
Inhapim,3130903,MG,Inhapim,5,Inhapim,-19.5501147218179,-42.1219309349806
Inhauma,3131000,MG,Inhaúma,5,Inhaúma,-19.4923673884806,-44.390945526609
Inimutaba,3131109,MG,Inimutaba,5,Inimutaba,-18.7314405298966,-44.3662617661161
Ipaba,3131158,MG,Ipaba,5,Ipaba,-19.4132508261961,-42.4181656693639
"Vale Verde de Minas Ipaba ",3131158,MG,Ipaba,15,Vale Verde de Minas,-19.4132508261961,-42.4181656693639
Ipanema,3131208,MG,Ipanema,5,Ipanema,-19.8003359539072,-41.7173533200378
Ipatinga,3131307,MG,Ipatinga,5,Ipatinga,-19.481032097265,-42.5203511114107
"Barra Alegre Ipatinga ",3131307,MG,Ipatinga,10,Barra Alegre,-19.481032097265,-42.5203511114107
Ipiacu,3131406,MG,Ipiaçu,5,Ipiaçu,-18.6948803087203,-49.9457732111112
Ipuiuna,3131505,MG,Ipuiúna,5,Ipuiúna,-4.31343168517722,-40.7187261447301
Irai de Minas,3131604,MG,Iraí de Minas,5,Iraí de Minas,-18.981858345519,-47.4629914178309
Itabira,3131703,MG,Itabira,5,Itabira,-19.6381694925835,-43.2239516190304
"Ipoema Itabira ",3131703,MG,Itabira,10,Ipoema,-19.6381694925835,-43.2239516190304
"Senhora do Carmo Itabira ",3131703,MG,Itabira,15,Senhora do Carmo,-19.6381694925835,-43.2239516190304
Itabirinha,3131802,MG,Itabirinha,5,Itabirinha,-18.5567992809294,-41.2331827152783
"Boa Uniao de Itabirinha Itabirinha ",3131802,MG,Itabirinha,10,Boa União de Itabirinha,-18.5567992809294,-41.2331827152783
Itabirito,3131901,MG,Itabirito,5,Itabirito,-20.2541765124384,-43.8021429838628
"Acurui Itabirito ",3131901,MG,Itabirito,10,Acuruí,-20.2541765124384,-43.8021429838628
Bacao Itabirito,3131901,MG,Itabirito,15,Bação,-20.2541765124384,-43.8021429838628
"São Goncalo do Monte Itabirito ",3131901,MG,Itabirito,20,São Gonçalo do Monte,-20.2541765124384,-43.8021429838628
Itacambira,3132008,MG,Itacambira,5,Itacambira,-17.0644351817249,-43.3104021870614
Itacarambi,3132107,MG,Itacarambi,5,Itacarambi,-15.102641864892,-44.0931858020531
Itaguara,3132206,MG,Itaguara,5,Itaguara,-20.3906782170492,-44.4867779577883
Itaipe,3132305,MG,Itaipé,5,Itaipé,-17.4042316437631,-41.6732295731568
Itajuba,3132404,MG,Itajubá,5,Itajubá,-22.4306005744942,-45.4645825045045
"Lourenço Velho Itajuba ",3132404,MG,Itajubá,60,Lourenço Velho,-22.4306005744942,-45.4645825045045
Itamarandiba,3132503,MG,Itamarandiba,5,Itamarandiba,-17.8585173258274,-42.8491577569261
"Contrato Itamarandiba ",3132503,MG,Itamarandiba,13,Contrato,-17.8585173258274,-42.8491577569261
"Padre João Afonso Itamarandiba ",3132503,MG,Itamarandiba,15,Padre João Afonso,-17.8585173258274,-42.8491577569261
"Penha de Franca Itamarandiba ",3132503,MG,Itamarandiba,20,Penha de França,-17.8585173258274,-42.8491577569261
Itamarati de Minas,3132602,MG,Itamarati de Minas,5,Itamarati de Minas,-21.4194556178374,-42.8185933585145
Itambacuri,3132701,MG,Itambacuri,5,Itambacuri,-18.0343299628962,-41.6822673820424
"Frei Serafim Itambacuri ",3132701,MG,Itambacuri,10,Frei Serafim,-18.0343299628962,-41.6822673820424
"Guarataia Itambacuri ",3132701,MG,Itambacuri,15,Guarataia,-18.0343299628962,-41.6822673820424
Itambe do Mato Dentro,3132800,MG,Itambé do Mato Dentro,5,Itambé do Mato Dentro,-19.4209634657341,-43.3228953038647
Itamogi,3132909,MG,Itamogi,5,Itamogi,-21.0784433613415,-47.0474677838902
Itamonte,3133006,MG,Itamonte,5,Itamonte,-22.285126973446,-44.8682875036049
Itanhandu,3133105,MG,Itanhandu,5,Itanhandu,-22.2950796548768,-44.9359219046627
Itanhomi,3133204,MG,Itanhomi,5,Itanhomi,-19.1716889295635,-41.864931837144
"Edgard Melo Itanhomi ",3133204,MG,Itanhomi,15,Edgard Melo,-19.1716889295635,-41.864931837144
"São Francisco do Jatai Itanhomi ",3133204,MG,Itanhomi,25,São Francisco do Jataí,-19.1716889295635,-41.864931837144
Itaobim,3133303,MG,Itaobim,5,Itaobim,-16.5595259169948,-41.4989769803723
Itapagipe,3133402,MG,Itapagipe,5,Itapagipe,-19.9032958273788,-49.3698210446178
Itapecerica,3133501,MG,Itapecerica,5,Itapecerica,-20.4728898996102,-45.1246798888931
"Lamounier Itapecerica ",3133501,MG,Itapecerica,10,Lamounier,-20.4728898996102,-45.1246798888931
"Marilandia Itapecerica ",3133501,MG,Itapecerica,15,Marilândia,-20.4728898996102,-45.1246798888931
"Neolandia Itapecerica ",3133501,MG,Itapecerica,20,Neolândia,-20.4728898996102,-45.1246798888931
Itapeva,3133600,MG,Itapeva,5,Itapeva,-22.7697403889152,-46.2195568578145
"Areias de Itapeva Itapeva ",3133600,MG,Itapeva,10,Areias de Itapeva,-22.7697403889152,-46.2195568578145
"Tropical Flores Itapeva ",3133600,MG,Itapeva,35,Tropical Flores,-22.7697403889152,-46.2195568578145
Itatiaiucu,3133709,MG,Itatiaiuçu,5,Itatiaiuçu,-20.1986423603592,-44.4291636129271
"Santa Terezinha de Minas Itatiaiucu ",3133709,MG,Itatiaiuçu,10,Santa Terezinha de Minas,-20.1986423603592,-44.4291636129271
Itau de Minas,3133758,MG,Itaú de Minas,5,Itaú de Minas,-20.7381893867748,-46.7529537830538
Itaúna,3133808,MG,Itaúna,5,Itaúna,-20.0744355868074,-44.5782765780477
Itaverava,3133907,MG,Itaverava,5,Itaverava,-20.6747274709917,-43.6043223481191
"Monsenhor Isidro Itaverava ",3133907,MG,Itaverava,10,Monsenhor Isidro,-20.6747274709917,-43.6043223481191
Itinga,3134004,MG,Itinga,5,Itinga,-16.60142939198,-41.7781780721963
"Jacare Itinga ",3134004,MG,Itinga,10,Jacaré,-16.60142939198,-41.7781780721963
Itueta,3134103,MG,Itueta,5,Itueta,-19.3923977847252,-41.225631912755
"Quatituba Itueta ",3134103,MG,Itueta,10,Quatituba,-19.3923977847252,-41.225631912755
Ituiutaba,3134202,MG,Ituiutaba,5,Ituiutaba,-18.973067680916,-49.4622351892104
Itumirim,3134301,MG,Itumirim,5,Itumirim,-21.313796338098,-44.8757878460442
"Macuco de Minas Itumirim ",3134301,MG,Itumirim,10,Macuco de Minas,-21.313796338098,-44.8757878460442
"Rosario do Rio Grande Itumirim ",3134301,MG,Itumirim,20,Rosário do Rio Grande,-21.313796338098,-44.8757878460442
Iturama,3134400,MG,Iturama,5,Iturama,-19.7319475242371,-50.2019735753731
"Alexandrita Iturama ",3134400,MG,Iturama,10,Alexandrita,-19.7319475242371,-50.2019735753731
Itutinga,3134509,MG,Itutinga,5,Itutinga,-21.2960563593091,-44.6588381542144
Jaboticatubas,3134608,MG,Jaboticatubas,5,Jaboticatubas,-19.5222886181808,-43.7473336329577
"Almeida Jaboticatubas ",3134608,MG,Jaboticatubas,10,Almeida,-19.5222886181808,-43.7473336329577
Jacinto,3134707,MG,Jacinto,5,Jacinto,-16.1411618529223,-40.2914288341066
Avai do Jacinto Jacinto,3134707,MG,Jacinto,7,Avaí do Jacinto,-16.1411618529223,-40.2914288341066
"Jaguarao Jacinto ",3134707,MG,Jacinto,10,Jaguarão,-16.1411618529223,-40.2914288341066
Jacui,3134806,MG,Jacuí,5,Jacuí,-21.0176021589274,-46.7420103807098
Jacutinga,3134905,MG,Jacutinga,5,Jacutinga,-22.286638029799,-46.6123411663105
"São Sebastião dos Robertos Jacutinga ",3134905,MG,Jacutinga,10,São Sebastião dos Robertos,-22.286638029799,-46.6123411663105
"Sapucai Jacutinga ",3134905,MG,Jacutinga,15,Sapucaí,-22.286638029799,-46.6123411663105
Jaguaracu,3135001,MG,Jaguaraçu,5,Jaguaraçu,-19.6470726974423,-42.7529990591999
"Lagoa de Pau Jaguaracu ",3135001,MG,Jaguaraçu,16,Lagoa de Pau,-19.6470726974423,-42.7529990591999
Jaiba,3135050,MG,Jaíba,5,Jaíba,-15.3429340536125,-43.6703288759639
Jampruca,3135076,MG,Jampruca,5,Jampruca,-18.4615985742441,-41.8101692473884
"São Sebastião do Barroso Jampruca ",3135076,MG,Jampruca,15,São Sebastião do Barroso,-18.4615985742441,-41.8101692473884
Janauba,3135100,MG,Janaúba,5,Janaúba,-15.7990284583669,-43.3076829437623
"Barreiro da Raiz Janauba ",3135100,MG,Janaúba,10,Barreiro da Raiz,-15.7990284583669,-43.3076829437623
"Quem Quem Janauba ",3135100,MG,Janaúba,15,Quem-Quem,-15.7990284583669,-43.3076829437623
"Vila Nova dos Pocoes Janauba ",3135100,MG,Janaúba,20,Vila Nova dos Poções,-15.7990284583669,-43.3076829437623
Januaria,3135209,MG,Januária,5,Januária,-15.4878728139879,-44.3598053349032
Japaraiba,3135308,MG,Japaraíba,5,Japaraíba,-20.1416175950709,-45.5041178058938
Japonvar,3135357,MG,Japonvar,5,Japonvar,-16.0009569335553,-44.2761272371548
"Nova Minda Japonvar ",3135357,MG,Japonvar,20,Nova Minda,-16.0009569335553,-44.2761272371548
Jeceaba,3135407,MG,Jeceaba,5,Jeceaba,-20.5330334382926,-43.9852319173302
Bituri Jeceaba,3135407,MG,Jeceaba,10,Bituri,-20.5330334382926,-43.9852319173302
"Caetano Lopes Jeceaba ",3135407,MG,Jeceaba,15,Caetano Lopes,-20.5330334382926,-43.9852319173302
Jenipapo de Minas,3135456,MG,Jenipapo de Minas,5,Jenipapo de Minas,-17.0804230780923,-42.2560474559329
Jequeri,3135506,MG,Jequeri,5,Jequeri,-20.4463030375066,-42.6822636838868
"Grota Jequeri ",3135506,MG,Jequeri,10,Grota,-20.4463030375066,-42.6822636838868
"Piscamba Jequeri ",3135506,MG,Jequeri,15,Piscamba,-20.4463030375066,-42.6822636838868
"Pouso Alegre da Mata Jequeri ",3135506,MG,Jequeri,17,Pouso Alegre da Mata,-20.4463030375066,-42.6822636838868
"São Vicente do Grama Jequeri ",3135506,MG,Jequeri,20,São Vicente do Grama,-20.4463030375066,-42.6822636838868
Jequitai,3135605,MG,Jequitaí,5,Jequitaí,-17.2163725570715,-44.4416872765915
Jequitiba,3135704,MG,Jequitibá,5,Jequitibá,-19.2376735101776,-44.0280763937239
"Doutor Campolina Jequitiba ",3135704,MG,Jequitibá,10,Doutor Campolina,-19.2376735101776,-44.0280763937239
Jequitinhonha,3135803,MG,Jequitinhonha,5,Jequitinhonha,-16.4417689423789,-41.0071154423797
"Guaranilandia Jequitinhonha ",3135803,MG,Jequitinhonha,10,Guaranilândia,-16.4417689423789,-41.0071154423797
"São Pedro do Jequitinhonha Jequitinhonha ",3135803,MG,Jequitinhonha,15,São Pedro do Jequitinhonha,-16.4417689423789,-41.0071154423797
Jesuania,3135902,MG,Jesuânia,5,Jesuânia,-21.9984256960602,-45.2908769703791
Joaima,3136009,MG,Joaíma,5,Joaíma,-16.6547296379851,-41.0230530136668
"Giru Joaima ",3136009,MG,Joaíma,7,Giru,-16.6547296379851,-41.0230530136668
Joanesia,3136108,MG,Joanésia,5,Joanésia,-19.1686956741327,-42.6747016823061
João Monlevade,3136207,MG,João Monlevade,5,João Monlevade,-19.8056386938267,-43.1745712712595
João Pinheiro,3136306,MG,João Pinheiro,5,João Pinheiro,-17.7418529395634,-46.1754635512704
"Caatinga João Pinheiro ",3136306,MG,João Pinheiro,10,Caatinga,-17.7418529395634,-46.1754635512704
"Canabrava João Pinheiro ",3136306,MG,João Pinheiro,15,Canabrava,-17.7418529395634,-46.1754635512704
"Luizlandia do Oeste João Pinheiro ",3136306,MG,João Pinheiro,17,Luizlândia do Oeste,-17.7418529395634,-46.1754635512704
"Olhos d Agua do Oeste João Pinheiro ",3136306,MG,João Pinheiro,20,Olhos d'Água do Oeste,-17.7418529395634,-46.1754635512704
"Santa Luzia da Serra João Pinheiro ",3136306,MG,João Pinheiro,23,Santa Luzia da Serra,-17.7418529395634,-46.1754635512704
"Veredas João Pinheiro ",3136306,MG,João Pinheiro,25,Veredas,-17.7418529395634,-46.1754635512704
Joaquim Felicio,3136405,MG,Joaquim Felício,5,Joaquim Felício,-17.7552943065804,-44.1736047177658
Jordânia,3136504,MG,Jordânia,5,Jordânia,-15.9010651064361,-40.1800141591305
"Estrela de Jordânia Jordânia ",3136504,MG,Jordânia,10,Estrela de Jordânia,-15.9010651064361,-40.1800141591305
José Goncalves de Minas,3136520,MG,José Gonçalves de Minas,5,José Gonçalves de Minas,-16.9071819765672,-42.6071746086131
José 3136553,,José 05,José -18.2174949411939,-42.5005902687835,,,
Josénopolis,3136579,MG,Josénópolis,5,Josénópolis,-16.5445254003468,-42.513137018713
Juatuba,3136652,MG,Juatuba,5,Juatuba,-19.9557908623338,-44.3413314409208
"Boa Vista da Serra Juatuba ",3136652,MG,Juatuba,10,Boa Vista da Serra,-19.9557908623338,-44.3413314409208
Juiz de Fora,3136702,MG,Juiz de Fora,5,Juiz de Fora,-21.7609243086743,-43.3488172724747
"Rosario de Minas Juiz de Fora ",3136702,MG,Juiz de Fora,60,Rosário de Minas,-21.7609243086743,-43.3488172724747
"Sarandira Juiz de Fora ",3136702,MG,Juiz de Fora,70,Sarandira,-21.7609243086743,-43.3488172724747
"Torreoes Juiz de Fora ",3136702,MG,Juiz de Fora,80,Torreões,-21.7609243086743,-43.3488172724747
Juramento,3136801,MG,Juramento,5,Juramento,-16.8512704550027,-43.5901936206433
Juruaia,3136900,MG,Juruaia,5,Juruaia,-21.2493559380963,-46.580596484704
Juvenilia,3136959,MG,Juvenília,5,Juvenília,-14.2635945628851,-44.1595897099682
"Monte Rei Juvenilia ",3136959,MG,Juvenília,15,Monte Rei,-14.2635945628851,-44.1595897099682
"Porto Agrario Juvenilia ",3136959,MG,Juvenília,20,Porto Agrário,-14.2635945628851,-44.1595897099682
Ladainha,3137007,MG,Ladainha,5,Ladainha,-17.6244796696875,-41.740449939658
"Concórdia do Mucuri Ladainha ",3137007,MG,Ladainha,10,Concórdia do Mucuri,-17.6244796696875,-41.740449939658
Lagamar,3137106,MG,Lagamar,5,Lagamar,-18.1769616222933,-46.8125356350839
"São Bras de Minas Lagamar ",3137106,MG,Lagamar,20,São Brás de Minas,-18.1769616222933,-46.8125356350839
Lagoa da Prata,3137205,MG,Lagoa da Prata,5,Lagoa da Prata,-20.0237653293211,-45.5416920320703
"Martins Guimaraes Lagoa da Prata ",3137205,MG,Lagoa da Prata,15,Martins Guimarães,-20.0237653293211,-45.5416920320703
Lagoa dos Patos,3137304,MG,Lagoa dos Patos,5,Lagoa dos Patos,-16.9784492004609,-44.5783346323487
Lagoa Dourada,3137403,MG,Lagoa Dourada,5,Lagoa Dourada,-20.918598617034,-44.0711164400161
Lagoa Formosa,3137502,MG,Lagoa Formosa,5,Lagoa Formosa,-18.7755725803991,-46.4065287919616
"Limeira de Minas Lagoa Formosa ",3137502,MG,Lagoa Formosa,7,Limeira de Minas,-18.7755725803991,-46.4065287919616
"Monjolinho de Minas Lagoa Formosa ",3137502,MG,Lagoa Formosa,10,Monjolinho de Minas,-18.7755725803991,-46.4065287919616
Lagoa Grande,3137536,MG,Lagoa Grande,5,Lagoa Grande,-17.8380469908804,-46.5179054003776
Lagoa Santa,3137601,MG,Lagoa Santa,5,Lagoa Santa,-19.1836069808173,-51.4046158469187
"Lagoinha de Fora Lagoa Santa ",3137601,MG,Lagoa Santa,14,Lagoinha de Fora,-19.1836069808173,-51.4046158469187
"Lapinha Lagoa Santa ",3137601,MG,Lagoa Santa,15,Lapinha,-19.1836069808173,-51.4046158469187
Lajinha,3137700,MG,Lajinha,5,Lajinha,-20.1641701467971,-41.645293037911
"Prata de Lajinha Lajinha ",3137700,MG,Lajinha,20,Prata de Lajinha,-20.1641701467971,-41.645293037911
Lambari,3137809,MG,Lambari,5,Lambari,-21.9743155557077,-45.3524788134755
Lamim,3137908,MG,Lamim,5,Lamim,-20.7920574262943,-43.4744670605853
Laranjal,3138005,MG,Laranjal,5,Laranjal,-21.3636296128679,-42.4806742915843
"São João da Sapucaia Laranjal ",3138005,MG,Laranjal,10,São João da Sapucaia,-21.3636296128679,-42.4806742915843
Lassance,3138104,MG,Lassance,5,Lassance,-17.8951151805206,-44.5793585587481
Lavras,3138203,MG,Lavras,5,Lavras,-21.2428702373008,-44.9999311091152
Leandro Ferreira,3138302,MG,Leandro Ferreira,5,Leandro Ferreira,-19.7192234719511,-45.0262837852858
Leme do Prado,3138351,MG,Leme do Prado,5,Leme do Prado,-17.0838668461657,-42.6956826242014
"Posses Leme do Prado ",3138351,MG,Leme do Prado,20,Posses,-17.0838668461657,-42.6956826242014
Leopoldina,3138401,MG,Leopoldina,5,Leopoldina,-21.530729364529,-42.6418441295043
"Abaiba Leopoldina ",3138401,MG,Leopoldina,10,Abaíba,-21.530729364529,-42.6418441295043
"Piacatuba Leopoldina ",3138401,MG,Leopoldina,15,Piacatuba,-21.530729364529,-42.6418441295043
"Providencia Leopoldina ",3138401,MG,Leopoldina,20,Providência,-21.530729364529,-42.6418441295043
"Ribeiro Junqueira Leopoldina ",3138401,MG,Leopoldina,25,Ribeiro Junqueira,-21.530729364529,-42.6418441295043
"Tebas Leopoldina ",3138401,MG,Leopoldina,30,Tebas,-21.530729364529,-42.6418441295043
Liberdade,3138500,MG,Liberdade,5,Liberdade,-22.0243587047765,-44.3151409364083
Lima Duarte,3138609,MG,Lima Duarte,5,Lima Duarte,-21.8410955180842,-43.796383224017
"Conceição da Ibitipoca Lima Duarte ",3138609,MG,Lima Duarte,10,Conceição da Ibitipoca,-21.8410955180842,-43.796383224017
"São Domingos da Bocaina Lima Duarte ",3138609,MG,Lima Duarte,15,São Domingos da Bocaina,-21.8410955180842,-43.796383224017
"São José dos Lopes Lima Duarte ",3138609,MG,Lima Duarte,20,São José dos Lopes,-21.8410955180842,-43.796383224017
Limeira do Oeste,3138625,MG,Limeira do Oeste,5,Limeira do Oeste,-19.5477771592959,-50.5752903741881
Lontra,3138658,MG,Lontra,5,Lontra,-15.9020583529967,-44.3061148191293
"Umbuzeiro Lontra ",3138658,MG,Lontra,15,Umbuzeiro,-15.9020583529967,-44.3061148191293
Luísburgo,3138674,MG,Luísburgo,5,Luísburgo,-20.4383761082781,-42.1064719035898
Luíslandia,3138682,MG,Luíslândia,5,Luíslândia,-16.1153114861604,-44.5860484270339
"São Judas Tadeu de Minas Luíslandia ",3138682,MG,Luíslândia,25,São Judas Tadeu de Minas,-16.1153114861604,-44.5860484270339
Luminarias,3138708,MG,Luminárias,5,Luminárias,-21.5123199001778,-44.9061064796858
Luz,3138807,MG,Luz,5,Luz,-19.7962466218588,-45.6838812680545
"Esteios Luz ",3138807,MG,Luz,10,Esteios,-19.7962466218588,-45.6838812680545
Machacalis,3138906,MG,Machacalis,5,Machacalis,-17.0773703528882,-40.7204221322494
Machado,3139003,MG,Machado,5,Machado,-21.6783538964701,-45.9217640832215
"Douradinho Machado ",3139003,MG,Machado,10,Douradinho,-21.6783538964701,-45.9217640832215
Madre de Deus de Minas,3139102,MG,Madre de Deus de Minas,5,Madre de Deus de Minas,-21.477322068925,-44.3408859114965
Malacacheta,3139201,MG,Malacacheta,5,Malacacheta,-17.8416225399766,-42.0760767010133
"Jaguaritira Malacacheta ",3139201,MG,Malacacheta,20,Jaguaritira,-17.8416225399766,-42.0760767010133
"Junco de Minas Malacacheta ",3139201,MG,Malacacheta,25,Junco de Minas,-17.8416225399766,-42.0760767010133
"Santo Antônio do Mucuri Malacacheta ",3139201,MG,Malacacheta,30,Santo Antônio do Mucuri,-17.8416225399766,-42.0760767010133
Mamonas,3139250,MG,Mamonas,5,Mamonas,-15.0516469177914,-42.955964349258
"Barrinha Mamonas ",3139250,MG,Mamonas,10,Barrinha,-15.0516469177914,-42.955964349258
Manga,3139300,MG,Manga,5,Manga,-14.7559221144299,-43.9367615223531
"Nhandutiba Manga ",3139300,MG,Manga,20,Nhandutiba,-14.7559221144299,-43.9367615223531
Manhuacu,3139409,MG,Manhuaçu,5,Manhuaçu,-20.2586800832824,-42.0338482904372
Manhumirim,3139508,MG,Manhumirim,5,Manhumirim,-20.3639991114518,-41.9626798073714
Mantena,3139607,MG,Mantena,5,Mantena,-18.7806998749734,-40.9785257407467
"Barra do Ariranha Mantena ",3139607,MG,Mantena,10,Barra do Ariranha,-18.7806998749734,-40.9785257407467
"Limeira de Mantena Mantena ",3139607,MG,Mantena,15,Limeira de Mantena,-18.7806998749734,-40.9785257407467
Mar de Espanha,3139805,MG,Mar de Espanha,5,Mar de Espanha,-21.8668933765816,-43.008406754404
"Engenho Novo Mar de Espanha ",3139805,MG,Mar de Espanha,10,Engenho Novo,-21.8668933765816,-43.008406754404
"Saudade Mar de Espanha ",3139805,MG,Mar de Espanha,15,Saudade,-21.8668933765816,-43.008406754404
Maravilhas,3139706,MG,Maravilhas,5,Maravilhas,-19.5146797200647,-44.6760761301857
Maria da Fe,3139904,MG,Maria da Fé,5,Maria da Fé,-22.3072187775991,-45.371053690755
"Pintos Negreiros Maria da Fe ",3139904,MG,Maria da Fé,10,Pintos Negreiros,-22.3072187775991,-45.371053690755
Mariana,3140001,MG,Mariana,5,Mariana,-20.3744932308933,-43.4161404121375
Marilac,3140100,MG,Marilac,5,Marilac,-18.5049724110901,-42.0816889525875
Mario Campos,3140159,MG,Mário Campos,5,Mário Campos,-20.0536364124057,-44.1858252961843
Maripa de Minas,3140209,MG,Maripá de Minas,5,Maripá de Minas,-21.6922627509639,-42.9683499274736
Marlieria,3140308,MG,Marliéria,5,Marliéria,-19.7064561098251,-42.737379035917
"Cava Grande Marlieria ",3140308,MG,Marliéria,15,Cava Grande,-19.7064561098251,-42.737379035917
Marmelopolis,3140407,MG,Marmelópolis,5,Marmelópolis,-22.4465170977661,-45.1600478024722
Martinho Campos,3140506,MG,Martinho Campos,5,Martinho Campos,-19.3297423483367,-45.2386503971405
"Alberto Isaacson Martinho Campos ",3140506,MG,Martinho Campos,10,Alberto -19.3297423483367,-45.2386503971405,
"Ibitira Martinho Campos ",3140506,MG,Martinho Campos,15,Ibitira,-19.3297423483367,-45.2386503971405
Martins Soares,3140530,MG,Martins Soares,5,Martins Soares,-20.2582291959846,-41.8757909081753
"Pinheiro de Minas Martins Soares ",3140530,MG,Martins Soares,20,Pinheiro de Minas,-20.2582291959846,-41.8757909081753
Mata Verde,3140555,MG,Mata Verde,5,Mata Verde,-15.6876678048477,-40.7385334084693
Materlandia,3140605,MG,Materlândia,5,Materlândia,-18.4727736734063,-43.0573759058743
Mateus Leme,3140704,MG,Mateus Leme,5,Mateus Leme,-19.9908681368469,-44.4289912352272
Azurita Mateus Leme,3140704,MG,Mateus Leme,10,Azurita,-19.9908681368469,-44.4289912352272
"Serra Azul Mateus Leme ",3140704,MG,Mateus Leme,20,Serra Azul,-19.9908681368469,-44.4289912352272
Mathias Lobato,3171501,MG,Mathias Lobato,5,Mathias Lobato,-18.5795889082626,-41.9233604609168
Matias Barbosa,3140803,MG,Matias Barbosa,5,Matias Barbosa,-21.8694792710752,-43.3191619887632
Matias Cardoso,3140852,MG,Matias Cardoso,5,Matias Cardoso,-14.8502838776958,-43.9178264365666
"Rio Verde de Minas Matias Cardoso ",3140852,MG,Matias Cardoso,35,Rio Verde de Minas,-14.8502838776958,-43.9178264365666
Matipo,3140902,MG,Matipó,5,Matipó,-20.2871482524922,-42.3414864060946
"Padre Fialho Matipo ",3140902,MG,Matipó,10,Padre Fialho,-20.2871482524922,-42.3414864060946
Mato Verde,3141009,MG,Mato Verde,5,Mato Verde,-15.3973215529759,-42.8665147238001
"São João do Bonito Mato Verde ",3141009,MG,Mato Verde,10,São João do Bonito,-15.3973215529759,-42.8665147238001
Matozinhos,3141108,MG,Matozinhos,5,Matozinhos,-19.5619102810389,-44.0839745678654
"Mocambeiro Matozinhos ",3141108,MG,Matozinhos,10,Mocambeiro,-19.5619102810389,-44.0839745678654
Matutina,3141207,MG,Matutina,5,Matutina,-19.2266120633451,-45.9835170334863
Medeiros,3141306,MG,Medeiros,5,Medeiros,-19.9933078776241,-46.2266888203747
Medina,3141405,MG,Medina,5,Medina,-16.2247956209704,-41.47630906692
"Tuparece Medina ",3141405,MG,Medina,10,Tuparecê,-16.2247956209704,-41.47630906692
Mendes Pimentel,3141504,MG,Mendes Pimentel,5,Mendes Pimentel,-18.661777740612,-41.4056151686685
Merces,3141603,MG,Mercês,5,Mercês,-21.1920649246761,-43.3410701613993
Mesquita,3141702,MG,Mesquita,5,Mesquita,-19.2243458124531,-42.6056610568179
"Barra Grande de Mesquita Mesquita ",3141702,MG,Mesquita,11,Barra Grande de Mesquita,-19.2243458124531,-42.6056610568179
Minas Novas,3141801,MG,Minas Novas,5,Minas Novas,-17.2154581636337,-42.5967587107471
Baixa Quente Minas Novas,3141801,MG,Minas Novas,6,Baixa Quente,-17.2154581636337,-42.5967587107471
"Cruzinha Minas Novas ",3141801,MG,Minas Novas,15,Cruzinha,-17.2154581636337,-42.5967587107471
"Lagoa Grande de Minas Novas Minas Novas ",3141801,MG,Minas Novas,20,Lagoa Grande de Minas Novas,-17.2154581636337,-42.5967587107471
"Ribeirão da Folha Minas Novas ",3141801,MG,Minas Novas,25,Ribeirão da Folha,-17.2154581636337,-42.5967587107471
Minduri,3141900,MG,Minduri,5,Minduri,-21.6775434808097,-44.6092928194542
Mirabela,3142007,MG,Mirabela,5,Mirabela,-16.2584529385286,-44.1606437772011
"Muquem Mirabela ",3142007,MG,Mirabela,10,Muquém,-16.2584529385286,-44.1606437772011
Miradouro,3142106,MG,Miradouro,5,Miradouro,-20.8944190662135,-42.3461498563434
Mirai,3142205,MG,Miraí,5,Miraí,-21.1939817415147,-42.6160395902808
"Dores da Vitória Mirai ",3142205,MG,Miraí,10,Dores da Vitória,-21.1939817415147,-42.6160395902808
Miravania,3142254,MG,Miravânia,5,Miravânia,-14.7478394007116,-44.4120754278479
Moeda,3142304,MG,Moeda,5,Moeda,-20.3302688429873,-44.047568670537
"Coco Moeda ",3142304,MG,Moeda,10,Coco,-20.3302688429873,-44.047568670537
Moema,3142403,MG,Moema,5,Moema,-19.8386998978716,-45.425310133709
Monjolos,3142502,MG,Monjolos,5,Monjolos,-18.3236856182628,-44.1193167724144
"Rodeador Monjolos ",3142502,MG,Monjolos,10,Rodeador,-18.3236856182628,-44.1193167724144
Monsenhor Paulo,3142601,MG,Monsenhor Paulo,5,Monsenhor Paulo,-21.7617721380659,-45.5450741387173
Montalvania,3142700,MG,Montalvânia,5,Montalvânia,-14.4203647785697,-44.3636205825571
"Pitarana Montalvania ",3142700,MG,Montalvânia,20,Pitarana,-14.4203647785697,-44.3636205825571
"São Sebastião dos Pocoes Montalvania ",3142700,MG,Montalvânia,25,São Sebastião dos Poções,-14.4203647785697,-44.3636205825571
"Capitania Montalvania ",3142700,MG,Montalvânia,30,Capitania,-14.4203647785697,-44.3636205825571
Monte Alegre de Minas,3142809,MG,Monte Alegre de Minas,5,Monte Alegre de Minas,-18.8691667166174,-48.8771169089609
Monte Azul,3142908,MG,Monte Azul,5,Monte Azul,-15.1553385887242,-42.8731654940395
Monte Belo,3143005,MG,Monte Belo,5,Monte Belo,-21.3271458474544,-46.3682455768311
"Jureia Monte Belo ",3143005,MG,Monte Belo,10,Juréia,-21.3271458474544,-46.3682455768311
"Santa Cruz da Aparecida Monte Belo ",3143005,MG,Monte Belo,15,Santa Cruz da Aparecida,-21.3271458474544,-46.3682455768311
Monte Carmelo,3143104,MG,Monte Carmelo,5,Monte Carmelo,-18.7290384400921,-47.4959724312194
Monte Formoso,3143153,MG,Monte Formoso,5,Monte Formoso,-16.8664938299771,-41.2545787417996
Monte Santo de Minas,3143203,MG,Monte Santo de Minas,5,Monte Santo de Minas,-21.1904748350993,-46.9771185470619
"Milagre Monte Santo de Minas ",3143203,MG,Monte Santo de Minas,10,Milagre,-21.1904748350993,-46.9771185470619
Monte Siao,3143401,MG,Monte Sião,5,Monte Sião,-22.4335488211534,-46.5737026933609
Montes Claros,3143302,MG,Montes Claros,5,Montes Claros,-16.7227066399838,-43.8654224343832
Montezuma,3143450,MG,Montezuma,5,Montezuma,-15.1711441584771,-42.50747369917
Morada Nova de Minas,3143500,MG,Morada Nova de Minas,5,Morada Nova de Minas,-18.6074447216394,-45.3555023480963
"Frei Orlando Morada Nova de Minas ",3143500,MG,Morada Nova de Minas,10,Frei Orlando,-18.6074447216394,-45.3555023480963
Morro da Garca,3143609,MG,Morro da Garça,5,Morro da Garça,-18.5472184629381,-44.6035310348425
Morro do Pilar,3143708,MG,Morro do Pilar,5,Morro do Pilar,-19.2183422251452,-43.3748041822981
Munhoz,3143807,MG,Munhoz,5,Munhoz,-22.6127826889517,-46.3603709348441
Belisario Muriae,3143906,MG,Muriaé,10,Belisário,-21.1266775,-42.3770412
"Boa Familia Muriae ",3143906,MG,Muriaé,15,Boa Família,-21.2088365,-42.5080439
"Bom Jesus da Cachoeira Muriae ",3143906,MG,Muriaé,20,Bom Jesus da Cachoeira,-21.2598982,-42.4049006
"Itamuri Muriae ",3143906,MG,Muriaé,25,Itamuri,-21.1319931,-42.360968
"Pirapanema Muriae ",3143906,MG,Muriaé,30,Pirapanema,-21.0736306,-42.5031369
"Vermelho Muriae ",3143906,MG,Muriaé,40,Vermelho,-21.1086703,-42.4515858
Muriae,3143906,MG,Muriaé,5,Muriaé,-21.1291403,-42.3702252
Mutum,3144003,MG,Mutum,5,Mutum,-19.8071892243168,-41.4391385240539
"Centenario Mutum ",3144003,MG,Mutum,10,Centenário,-19.8071892243168,-41.4391385240539
"Imbirucu Mutum ",3144003,MG,Mutum,12,Imbiruçu,-19.8071892243168,-41.4391385240539
"Ocidente Mutum ",3144003,MG,Mutum,15,Ocidente,-19.8071892243168,-41.4391385240539
"Roseiral Mutum ",3144003,MG,Mutum,20,Roseiral,-19.8071892243168,-41.4391385240539
"São Francisco do Humaita Mutum ",3144003,MG,Mutum,25,São Francisco do Humaitá,-19.8071892243168,-41.4391385240539
Muzambinho,3144102,MG,Muzambinho,5,Muzambinho,-21.3730127526952,-46.5268046885479
Nacip 3144201,,Nacip 05,Nacip -18.4579241926549,-42.2517915937101,,,
Nanuque,3144300,MG,Nanuque,5,Nanuque,-17.8389933519387,-40.3517388336104
"Vila Pereira Nanuque ",3144300,MG,Nanuque,10,Vila Pereira,-17.8389933519387,-40.3517388336104
Naque,3144359,MG,Naque,5,Naque,-19.2235434748675,-42.3347084488518
Natalandia,3144375,MG,Natalândia,5,Natalândia,-16.5038364836175,-46.4975343552908
Natercia,3144409,MG,Natércia,5,Natércia,-22.1184737389404,-45.5182345056536
Nazareno,3144508,MG,Nazareno,5,Nazareno,-21.2176969671606,-44.6172346644262
Nepomuceno,3144607,MG,Nepomuceno,5,Nepomuceno,-21.2345769350247,-45.237429119816
"Nazare de Minas Nepomuceno ",3144607,MG,Nepomuceno,20,Nazaré de Minas,-21.2345769350247,-45.237429119816
"Santo Antônio do Cruzeiro Nepomuceno ",3144607,MG,Nepomuceno,25,Santo Antônio do Cruzeiro,-21.2345769350247,-45.237429119816
Ninheira,3144656,MG,Ninheira,5,Ninheira,-15.3238019191961,-41.7487889593795
Nova Belém,3144672,MG,Nova Belém,5,Nova Belém,-18.4940908207838,-41.103687832357
"Santo Antônio de Nova Belém Nova Belém ",3144672,MG,Nova Belém,20,Santo Antônio de Nova Belém,-18.4940908207838,-41.103687832357
Nova Era,3144706,MG,Nova Era,5,Nova Era,-19.7644230686327,-43.0354568497189
Nova Lima,3144805,MG,Nova Lima,5,Nova Lima,-19.9838929938666,-43.8497833626163
Nova Modica,3144904,MG,Nova Módica,5,Nova Módica,-18.4416056135454,-41.5013362739996
Nova Ponte,3145000,MG,Nova Ponte,5,Nova Ponte,-19.1688916492638,-47.670570749698
Nova Porteirinha,3145059,MG,Nova Porteirinha,5,Nova Porteirinha,-15.8022101967311,-43.3025512295159
Nova Resende,3145109,MG,Nova Resende,5,Nova Resende,-21.1266519125721,-46.4170291046065
"Petunia Nova Resende ",3145109,MG,Nova Resende,10,Petúnia,-21.1266519125721,-46.4170291046065
Nova Serrana,3145208,MG,Nova Serrana,5,Nova Serrana,-19.875867380562,-44.9855787363319
"Boa Vista de Minas Nova Serrana ",3145208,MG,Nova Serrana,10,Boa Vista de Minas,-19.875867380562,-44.9855787363319
Nova Uniao,3136603,MG,Nova União,5,Nova União,-19.6881033680241,-43.5799944146644
Novo Cruzeiro,3145307,MG,Novo Cruzeiro,5,Novo Cruzeiro,-17.4748888552055,-41.8753915421219
"Lufa Novo Cruzeiro ",3145307,MG,Novo Cruzeiro,10,Lufa,-17.4748888552055,-41.8753915421219
"Novilhona Novo Cruzeiro ",3145307,MG,Novo Cruzeiro,15,Novilhona,-17.4748888552055,-41.8753915421219
"Queixada Novo Cruzeiro ",3145307,MG,Novo Cruzeiro,20,Queixada,-17.4748888552055,-41.8753915421219
Novo Oriente de Minas,3145356,MG,Novo Oriente de Minas,5,Novo Oriente de Minas,-17.4091656808734,-41.2220966101202
Novorizonte,3145372,MG,Novorizonte,5,Novorizonte,-16.0195385667832,-42.4167808370082
Olaria,3145406,MG,Olaria,5,Olaria,-21.8647729424271,-43.9309268801853
Olhos d Agua,3145455,MG,Olhos-d'Água,5,Olhos-d'Água,-17.39638,-43.5708569
Olimpio Noronha,3145505,MG,Olímpio Noronha,5,Olímpio Noronha,-22.066959814499,-45.2641356959281
Oliveira,3145604,MG,Oliveira,5,Oliveira,-20.6975157761844,-44.826410866482
"Morro do Ferro Oliveira ",3145604,MG,Oliveira,10,Morro do Ferro,-20.6975157761844,-44.826410866482
Oliveira Fortes,3145703,MG,Oliveira Fortes,5,Oliveira Fortes,-21.3394932742633,-43.462543869181
Onca de Pitangui,3145802,MG,Onça de Pitangui,5,Onça de Pitangui,-19.745524484591,-44.8083821799508
Oratorios,3145851,MG,Oratórios,5,Oratórios,-20.4309959520838,-42.8063392207749
Orizania,3145877,MG,Orizânia,5,Orizânia,-20.5041213742453,-42.2029460820898
Ouro Branco,3145901,MG,Ouro Branco,5,Ouro Branco,-9.163415364026,-37.3544437290231
Ouro Fino,3146008,MG,Ouro Fino,5,Ouro Fino,-22.2835244238733,-46.3800808287623
"Crisolia Ouro Fino ",3146008,MG,Ouro Fino,10,Crisólia,-22.2835244238733,-46.3800808287623
"São José do Mato Dentro Ouro Fino ",3146008,MG,Ouro Fino,15,São José do Mato Dentro,-22.2835244238733,-46.3800808287623
Ouro Preto,3146107,MG,Ouro Preto,5,Ouro Preto,-20.3867763678658,-43.5064475197137
Ouro Verde de Minas,3146206,MG,Ouro Verde de Minas,5,Ouro Verde de Minas,-18.0693390949826,-41.268709492315
Padre Carvalho,3146255,MG,Padre Carvalho,5,Padre Carvalho,-16.3651032683092,-42.5207448266403
Padre Paraiso,3146305,MG,Padre Paraíso,5,Padre Paraíso,-17.076318651422,-41.4849648092247
Pai Pedro,3146552,MG,Pai Pedro,5,Pai Pedro,-15.537065987525,-43.0705559756113
Paineiras,3146404,MG,Paineiras,5,Paineiras,-18.9022172143692,-45.5387576862268
"Pocoes de Paineiras Paineiras ",3146404,MG,Paineiras,10,Poções de Paineiras,-18.9022172143692,-45.5387576862268
Pains,3146503,MG,Pains,5,Pains,-20.3709172455364,-45.660813183335
"Vila Costina Pains ",3146503,MG,Pains,10,Vila Costina,-20.3709172455364,-45.660813183335
Paiva,3146602,MG,Paiva,5,Paiva,-21.2878522493125,-43.4188333732522
Palma,3146701,MG,Palma,5,Palma,-21.3725611558571,-42.3158258828457
"Cisneiros Palma ",3146701,MG,Palma,10,Cisneiros,-21.3725611558571,-42.3158258828457
"Itapirucu Palma ",3146701,MG,Palma,15,Itapiruçu,-21.3725611558571,-42.3158258828457
Palmopolis,3146750,MG,Palmópolis,5,Palmópolis,-16.7344674967349,-40.4203975983825
"Dois de Abril Palmopolis ",3146750,MG,Palmópolis,10,Dois de Abril,-16.7344674967349,-40.4203975983825
Papagaios,3146909,MG,Papagaios,5,Papagaios,-19.4555367596145,-44.7447017250618
Para de Minas,3147105,MG,Pará de Minas,5,Pará de Minas,-19.8647379639463,-44.6053801878937
"Ascensao Para de Minas ",3147105,MG,Pará de Minas,10,Ascensão,-19.8647379639463,-44.6053801878937
"Carioca Para de Minas ",3147105,MG,Pará de Minas,15,Carioca,-19.8647379639463,-44.6053801878937
"Corrego do Barro Para de Minas ",3147105,MG,Pará de Minas,20,Córrego do Barro,-19.8647379639463,-44.6053801878937
"Tavares de Minas Para de Minas ",3147105,MG,Pará de Minas,22,Tavares de Minas,-19.8647379639463,-44.6053801878937
"Torneiros Para de Minas ",3147105,MG,Pará de Minas,25,Torneiros,-19.8647379639463,-44.6053801878937
Paracatu,3147006,MG,Paracatu,5,Paracatu,-17.219741910187,-46.8754188909564
Paraguacu,3147204,MG,Paraguaçu,5,Paraguaçu,-21.5473160267618,-45.7326954707608
"Guaipava Paraguacu ",3147204,MG,Paraguaçu,10,Guaipava,-21.5473160267618,-45.7326954707608
Paraisopolis,3147303,MG,Paraisópolis,5,Paraisópolis,-22.5551927714903,-45.7817035280062
"Costas Paraisopolis ",3147303,MG,Paraisópolis,10,Costas,-22.5551927714903,-45.7817035280062
Paraopeba,3147402,MG,Paraopeba,5,Paraopeba,-19.2814289520739,-44.403116870288
Passa Quatro,3147600,MG,Passa Quatro,5,Passa Quatro,-22.3897981316188,-44.9696386730973
"Pe do Morro Passa Quatro ",3147600,MG,Passa Quatro,10,Pé do Morro,-22.3897981316188,-44.9696386730973
"Pinheirinhos Passa Quatro ",3147600,MG,Passa Quatro,15,Pinheirinhos,-22.3897981316188,-44.9696386730973
Passa Tempo,3147709,MG,Passa Tempo,5,Passa Tempo,-20.652387747284,-44.4934171989932
Passabem,3147501,MG,Passabém,5,Passabém,-19.3509824791921,-43.1438137394836
Passa Vinte,3147808,MG,Passa-Vinte,5,Passa-Vinte,-22.208976878402,-44.2310487920843
Passos,3147907,MG,Passos,5,Passos,-20.7192119018634,-46.6114125680355
Patis,3147956,MG,Patis,5,Patis,-16.0792763596562,-44.0827053066768
Patos de Minas,3148004,MG,Patos de Minas,5,Patos de Minas,-18.5925708199234,-46.5159156766059
Bom Sucesso de Patos Patos de Minas,3148004,MG,Patos de Minas,10,Bom Sucesso de Patos,-18.5925708199234,-46.5159156766059
"Chumbo Patos de Minas ",3148004,MG,Patos de Minas,15,Chumbo,-18.5925708199234,-46.5159156766059
"Major Porto Patos de Minas ",3148004,MG,Patos de Minas,20,Major Porto,-18.5925708199234,-46.5159156766059
"Pindaibas Patos de Minas ",3148004,MG,Patos de Minas,25,Pindaíbas,-18.5925708199234,-46.5159156766059
"Pilar Patos de Minas ",3148004,MG,Patos de Minas,27,Pilar,-18.5925708199234,-46.5159156766059
"Santana de Patos Patos de Minas ",3148004,MG,Patos de Minas,30,Santana de Patos,-18.5925708199234,-46.5159156766059
Patrocinio,3148103,MG,Patrocínio,5,Patrocínio,-18.9408129613497,-46.9974382401645
"Salitre de Minas Patrocinio ",3148103,MG,Patrocínio,10,Salitre de Minas,-18.9408129613497,-46.9974382401645
"Santa Luzia dos Barros Patrocinio ",3148103,MG,Patrocínio,13,Santa Luzia dos Barros,-18.9408129613497,-46.9974382401645
"São João da Serra Negra Patrocinio ",3148103,MG,Patrocínio,15,São João da Serra Negra,-18.9408129613497,-46.9974382401645
"Silvano Patrocinio ",3148103,MG,Patrocínio,20,Silvano,-18.9408129613497,-46.9974382401645
Patrocinio do Muriae,3148202,MG,Patrocínio do Muriaé,5,Patrocínio do Muriaé,-21.1517112745085,-42.2126532982876
Paula Candido,3148301,MG,Paula Cândido,5,Paula Cândido,-20.8701615330242,-42.9831550986696
"Airoes Paula Candido ",3148301,MG,Paula Cândido,10,Airões,-20.8701615330242,-42.9831550986696
Paulistas,3148400,MG,Paulistas,5,Paulistas,-18.4317377127072,-42.8726250989216
Pavao,3148509,MG,Pavão,5,Pavão,-17.4326895767166,-41.0001132091318
Pecanha,3148608,MG,Peçanha,5,Peçanha,-18.5468889887705,-42.563186267502
"Santa Teresa do Bonito Pecanha ",3148608,MG,Peçanha,15,Santa Teresa do Bonito,-18.5468889887705,-42.563186267502
Pedra Azul,3148707,MG,Pedra Azul,5,Pedra Azul,-16.0059227890656,-41.2817519782488
Aracaji de Minas Pedra Azul,3148707,MG,Pedra Azul,10,Araçaji de Minas,-16.0059227890656,-41.2817519782488
Pedra Bonita,3148756,MG,Pedra Bonita,5,Pedra Bonita,-20.5200184905724,-42.3321344916825
Pedra do Anta,3148806,MG,Pedra do Anta,5,Pedra do Anta,-20.5960112647687,-42.7159333247726
Pedra do Indaia,3148905,MG,Pedra do Indaiá,5,Pedra do Indaiá,-20.2535964014334,-45.2098100905663
Pedra Dourada,3149002,MG,Pedra Dourada,5,Pedra Dourada,-20.8299461552485,-42.1545386689724
Pedralva,3149101,MG,Pedralva,5,Pedralva,-22.254226003118,-45.4659715175691
Pedras de Maria da Cruz,3149150,MG,Pedras de Maria da Cruz,5,Pedras de Maria da Cruz,-15.5990124531728,-44.3924439591511
"São Pedro das Tabocas Pedras de Maria da Cruz ",3149150,MG,Pedras de Maria da Cruz,10,São Pedro das Tabocas,-15.5990124531728,-44.3924439591511
Pedrinopolis,3149200,MG,Pedrinópolis,5,Pedrinópolis,-19.2277204066822,-47.4606173926482
Pedro Leopoldo,3149309,MG,Pedro Leopoldo,5,Pedro Leopoldo,-19.6183958909548,-44.045883960309
"Doutor Lund Pedro Leopoldo ",3149309,MG,Pedro Leopoldo,10,Doutor Lund,-19.6183958909548,-44.045883960309
"Fidalgo Pedro Leopoldo ",3149309,MG,Pedro Leopoldo,15,Fidalgo,-19.6183958909548,-44.045883960309
"Lagoa de Santo Antônio Pedro Leopoldo ",3149309,MG,Pedro Leopoldo,17,Lagoa de Santo Antônio,-19.6183958909548,-44.045883960309
"Vera Cruz de Minas Pedro Leopoldo ",3149309,MG,Pedro Leopoldo,20,Vera Cruz de Minas,-19.6183958909548,-44.045883960309
Pedro Teixeira,3149408,MG,Pedro Teixeira,5,Pedro Teixeira,-21.7068071496686,-43.7454590571945
Pequeri,3149507,MG,Pequeri,5,Pequeri,-21.8369041285086,-43.126286174621
Pequi,3149606,MG,Pequi,5,Pequi,-19.6279870911321,-44.653441896498
Perdigao,3149705,MG,Perdigão,5,Perdigão,-19.9551229354497,-45.0793625822689
Perdizes,3149804,MG,Perdizes,5,Perdizes,-19.3386575248866,-47.2920084470812
Perdoes,3149903,MG,Perdões,5,Perdões,-21.0945188675979,-45.0930878294041
Periquito,3149952,MG,Periquito,5,Periquito,-19.1544849011065,-42.2347246280496
"Pedra Corrida Periquito ",3149952,MG,Periquito,15,Pedra Corrida,-19.1544849011065,-42.2347246280496
"São Sebastião do Baixio Periquito ",3149952,MG,Periquito,20,São Sebastião do Baixio,-19.1544849011065,-42.2347246280496
Pescador,3150000,MG,Pescador,5,Pescador,-18.3536287289768,-41.6016228175806
Piau,3150109,MG,Piau,5,Piau,-21.5046175293695,-43.329125174333
Piedade de Caratinga,3150158,MG,Piedade de Caratinga,5,Piedade de Caratinga,-19.7592126249565,-42.0742639715865
Piedade de Ponte Nova,3150208,MG,Piedade de Ponte Nova,5,Piedade de Ponte Nova,-20.2476646154438,-42.7352388987405
Piedade do Rio Grande,3150307,MG,Piedade do Rio Grande,5,Piedade do Rio Grande,-21.4697328736348,-44.2025017471596
"Paraiso da Piedade Piedade do Rio Grande ",3150307,MG,Piedade do Rio Grande,20,Paraíso da Piedade,-21.4697328736348,-44.2025017471596
"Santo Antônio do Porto Piedade do Rio Grande ",3150307,MG,Piedade do Rio Grande,25,Santo Antônio do Porto,-21.4697328736348,-44.2025017471596
Piedade dos Gerais,3150406,MG,Piedade dos Gerais,5,Piedade dos Gerais,-20.4610103538288,-44.2279160102123
Pimenta,3150505,MG,Pimenta,5,Pimenta,-20.4831953924347,-45.7990870292463
"Santo Hilario Pimenta ",3150505,MG,Pimenta,10,Santo Hilário,-20.4831953924347,-45.7990870292463
Pingo d Agua,3150539,MG,Pingo-d'Água,5,Pingo-d'Água,-19.7278226,-42.4081874
Pintopolis,3150570,MG,Pintópolis,5,Pintópolis,-16.0549897298845,-45.1495068805966
"Vila Acari Pintopolis ",3150570,MG,Pintópolis,35,Vila Acari,-16.0549897298845,-45.1495068805966
Piracema,3150604,MG,Piracema,5,Piracema,-20.508995862821,-44.4784717749718
Pirajuba,3150703,MG,Pirajuba,5,Pirajuba,-19.9085049086271,-48.6966380638012
Piranga,3150802,MG,Piranga,5,Piranga,-20.6851438161544,-43.2873455533564
"Pinheiros Altos Piranga ",3150802,MG,Piranga,10,Pinheiros Altos,-20.6851438161544,-43.2873455533564
"Santo Antônio do Pirapetinga Piranga ",3150802,MG,Piranga,15,Santo Antônio do Pirapetinga,-20.6851438161544,-43.2873455533564
Pirangucu,3150901,MG,Piranguçu,5,Piranguçu,-22.5264938453732,-45.4932717049665
Piranguinho,3151008,MG,Piranguinho,5,Piranguinho,-22.4118730678437,-45.5347391785866
"Olegario Maciel Piranguinho ",3151008,MG,Piranguinho,10,Olegário Maciel,-22.4118730678437,-45.5347391785866
"Santa Barbara do Sapucai Piranguinho ",3151008,MG,Piranguinho,20,Santa Bárbara do Sapucaí,-22.4118730678437,-45.5347391785866
Pirapetinga,3151107,MG,Pirapetinga,5,Pirapetinga,-21.6559720071799,-42.3484310466426
"Caiapo Pirapetinga ",3151107,MG,Pirapetinga,10,Caiapó,-21.6559720071799,-42.3484310466426
"Valao Quente Pirapetinga ",3151107,MG,Pirapetinga,20,Valão Quente,-21.6559720071799,-42.3484310466426
Pirapora,3151206,MG,Pirapora,5,Pirapora,-17.3495820956098,-44.9510653804875
Pirauba,3151305,MG,Piraúba,5,Piraúba,-21.2765501292586,-43.0181308108699
Pitangui,3151404,MG,Pitangui,5,Pitangui,-19.6805972412923,-44.8901188906692
Piumhi,3151503,MG,Piumhi,5,Piumhi,-20.4708828676222,-45.9605686667875
Planura,3151602,MG,Planura,5,Planura,-20.1386632020283,-48.699918855179
Poco Fundo,3151701,MG,Poço Fundo,5,Poço Fundo,-21.7846925499932,-45.9649695631605
"Paiolinho Poco Fundo ",3151701,MG,Poço Fundo,10,Paiolinho,-21.7846925499932,-45.9649695631605
Pocos de Caldas,3151800,MG,Poços de Caldas,5,Poços de Caldas,-21.7873635785949,-46.5664100449604
Pocrane,3151909,MG,Pocrane,5,Pocrane,-19.6201444044024,-41.6290012532568
"Assarai Pocrane ",3151909,MG,Pocrane,10,Assaraí,-19.6201444044024,-41.6290012532568
"Barra da Figueira Pocrane ",3151909,MG,Pocrane,15,Barra da Figueira,-19.6201444044024,-41.6290012532568
Pompeu,3152006,MG,Pompéu,5,Pompéu,-19.2209571770945,-45.0018708585068
"Silva Campos Pompeu ",3152006,MG,Pompéu,10,Silva Campos,-19.2209571770945,-45.0018708585068
Ponte Nova,3152105,MG,Ponte Nova,5,Ponte Nova,-20.4166434224879,-42.9096842699379
"Rosario do Pontal Ponte Nova ",3152105,MG,Ponte Nova,13,Rosário do Pontal,-20.4166434224879,-42.9096842699379
"Vau Acu Ponte Nova ",3152105,MG,Ponte Nova,15,Vau-Açu,-20.4166434224879,-42.9096842699379
Ponto Chique,3152131,MG,Ponto Chique,5,Ponto Chique,-16.6330397392495,-45.0631345096394
Ponto dos Volantes,3152170,MG,Ponto dos Volantes,5,Ponto dos Volantes,-16.754519633283,-41.5078082034317
"Santana do Aracuai Ponto dos Volantes ",3152170,MG,Ponto dos Volantes,20,Santana do Araçuaí,-16.754519633283,-41.5078082034317
Porteirinha,3152204,MG,Porteirinha,5,Porteirinha,-15.746837727003,-43.0285226494433
Porto Firme,3152303,MG,Porto Firme,5,Porto Firme,-20.6682669693677,-43.0914109084357
Pote,3152402,MG,Poté,5,Poté,-17.8013694472947,-41.7883855248752
"Sucanga Pote ",3152402,MG,Poté,7,Sucanga,-17.8013694472947,-41.7883855248752
"Valao Pote ",3152402,MG,Poté,10,Valão,-17.8013694472947,-41.7883855248752
Pouso Alegre,3152501,MG,Pouso Alegre,5,Pouso Alegre,-22.2303029951548,-45.9371442758265
"São José do Pantano Pouso Alegre ",3152501,MG,Pouso Alegre,10,São José do Pântano,-22.2303029951548,-45.9371442758265
Pouso Alto,3152600,MG,Pouso Alto,5,Pouso Alto,-22.190942292589,-44.9753435743211
"Santana do Capivari Pouso Alto ",3152600,MG,Pouso Alto,10,Santana do Capivari,-22.190942292589,-44.9753435743211
Prados,3152709,MG,Prados,5,Prados,-21.0560144581482,-44.0732802771837
Prata,3152808,MG,Prata,5,Prata,-19.3082112062986,-48.9238460694599
"Jardinesia Prata ",3152808,MG,Prata,10,Jardinésia,-19.3082112062986,-48.9238460694599
"Patrimonio Prata ",3152808,MG,Prata,15,Patrimônio,-19.3082112062986,-48.9238460694599
Pratapolis,3152907,MG,Pratápolis,5,Pratápolis,-20.7441844539655,-46.8609173417016
Pratinha,3153004,MG,Pratinha,5,Pratinha,-19.7569452522589,-46.3784486441064
Presidente Bernardes,3153103,MG,Presidente Bernardes,5,Presidente Bernardes,-20.7656775010213,-43.1900555792424
Presidente Juscelino,3153202,MG,Presidente Juscelino,5,Presidente Juscelino,-2.92822924614923,-44.0767794214185
Presidente Kubitschek,3153301,MG,Presidente Kubitschek,5,Presidente Kubitschek,-18.6154898025756,-43.5574479486812
Presidente Olegario,3153400,MG,Presidente Olegário,5,Presidente Olegário,-18.414741973875,-46.4177886879906
"Galena Presidente Olegario ",3153400,MG,Presidente Olegário,10,Galena,-18.414741973875,-46.4177886879906
"Ponte Firme Presidente Olegario ",3153400,MG,Presidente Olegário,20,Ponte Firme,-18.414741973875,-46.4177886879906
"Santiago de Minas Presidente Olegario ",3153400,MG,Presidente Olegário,30,Santiago de Minas,-18.414741973875,-46.4177886879906
Prudente de Morais,3153608,MG,Prudente de Morais,5,Prudente de Morais,-19.4835603824475,-44.1583906670618
Quartel Geral,3153707,MG,Quartel Geral,5,Quartel Geral,-19.2676900955159,-45.5588633859592
"Quartel de São João Quartel Geral ",3153707,MG,Quartel Geral,10,Quartel de São João,-19.2676900955159,-45.5588633859592
Queluzito,3153806,MG,Queluzito,5,Queluzito,-20.7423844777111,-43.8800273028343
Raposos,3153905,MG,Raposos,5,Raposos,-19.9655987691945,-43.8047741981268
Raul Soares,3154002,MG,Raul Soares,5,Raul Soares,-20.1019588519943,-42.4541675367435
Bicuiba Raul Soares,3154002,MG,Raul Soares,10,Bicuíba,-20.1019588519943,-42.4541675367435
"Santana do Tabuleiro Raul Soares ",3154002,MG,Raul Soares,15,Santana do Tabuleiro,-20.1019588519943,-42.4541675367435
"São Sebastião do Oculo Raul Soares ",3154002,MG,Raul Soares,20,São Sebastião do Óculo,-20.1019588519943,-42.4541675367435
"São Vicente da Estrela Raul Soares ",3154002,MG,Raul Soares,25,São Vicente da Estrela,-20.1019588519943,-42.4541675367435
"Vermelho Velho Raul Soares ",3154002,MG,Raul Soares,35,Vermelho Velho,-20.1019588519943,-42.4541675367435
Recreio,3154101,MG,Recreio,5,Recreio,-21.5337846187598,-42.4713945672859
"Angaturama Recreio ",3154101,MG,Recreio,10,Angaturama,-21.5337846187598,-42.4713945672859
"Conceição da Boa Vista Recreio ",3154101,MG,Recreio,15,Conceição da Boa Vista,-21.5337846187598,-42.4713945672859
Reduto,3154150,MG,Reduto,5,Reduto,-20.2426797034932,-41.9851988576302
Resende Costa,3154200,MG,Resende Costa,5,Resende Costa,-20.9173692442954,-44.2394035043136
"Jacarandira Resende Costa ",3154200,MG,Resende Costa,10,Jacarandira,-20.9173692442954,-44.2394035043136
"Calixto Resplendor ",3154309,MG,Resplendor,15,Calixto,-19.2529517,-41.1518092
"Campo Alegre de Minas Resplendor ",3154309,MG,Resplendor,20,Campo Alegre de Minas,-19.1006701,-41.0319268
"Independencia Resplendor ",3154309,MG,Resplendor,25,Independência,-19.1773183,-41.26007610000001
"Nicolandia Resplendor ",3154309,MG,Resplendor,30,Nicolândia,-19.2215009,-40.9841897
Resplendor,3154309,MG,Resplendor,5,Resplendor,-19.3244066,-41.2513767
Bom Pastor Resplendor,3154309,MG,Resplendor,10,Bom Pastor,-19.269423,-41.0395443
Ressaquinha,3154408,MG,Ressaquinha,5,Ressaquinha,-21.0553009170043,-43.7587060938834
"Canjamba Ressaquinha ",3154408,MG,Ressaquinha,7,Canjamba,-21.0553009170043,-43.7587060938834
"Simao Tamm Ressaquinha ",3154408,MG,Ressaquinha,30,Simão Tamm,-21.0553009170043,-43.7587060938834
"Vargem do Amargoso Ressaquinha ",3154408,MG,Ressaquinha,35,Vargem do Amargoso,-21.0553009170043,-43.7587060938834
Riachinho,3154457,MG,Riachinho,5,Riachinho,-16.2168261724193,-46.0027468183087
Riacho dos Machados,3154507,MG,Riacho dos Machados,5,Riacho dos Machados,-15.9980341607319,-43.0445637317792
Bem Querer Riacho dos Machados,3154507,MG,Riacho dos Machados,10,Bem-Querer,-15.9980341607319,-43.0445637317792
Ribeirão das Neves,3154606,MG,Ribeirão das Neves,5,Ribeirão das Neves,-19.766022015498,-44.085823649141
"Justinopolis Ribeirão das Neves ",3154606,MG,Ribeirão das Neves,10,Justinópolis,-19.766022015498,-44.085823649141
Ribeirão Vermelho,3154705,MG,Ribeirão Vermelho,5,Ribeirão Vermelho,-21.1904143250473,-45.064782108458
Rio Acima,3154804,MG,Rio Acima,5,Rio Acima,-20.0951301629183,-43.7908543768367
Rio Casca,3154903,MG,Rio Casca,5,Rio Casca,-20.2265128664941,-42.6522301991544
"Jurumirim Rio Casca ",3154903,MG,Rio Casca,10,Jurumirim,-20.2265128664941,-42.6522301991544
Rio do Prado,3155108,MG,Rio do Prado,5,Rio do Prado,-16.6094078454736,-40.5718939337966
Rio Doce,3155009,MG,Rio Doce,5,Rio Doce,-20.2446457034063,-42.8956813088344
Rio Espera,3155207,MG,Rio Espera,5,Rio Espera,-20.8580800986411,-43.4653334003173
"Piranguita Rio Espera ",3155207,MG,Rio Espera,10,Piranguita,-20.8580800986411,-43.4653334003173
"Rio Melo Rio Espera ",3155207,MG,Rio Espera,15,Rio Melo,-20.8580800986411,-43.4653334003173
Rio Manso,3155306,MG,Rio Manso,5,Rio Manso,-20.2616823651625,-44.3102050445654
"Souza Rio Manso ",3155306,MG,Rio Manso,10,Souza,-20.2616823651625,-44.3102050445654
Rio Novo,3155405,MG,Rio Novo,5,Rio Novo,-21.4832491498789,-43.1286689152867
Rio Paranaiba,3155504,MG,Rio Paranaíba,5,Rio Paranaíba,-19.191238301813,-46.2427530916275
"Abaete dos Mendes Rio Paranaiba ",3155504,MG,Rio Paranaíba,10,Abaeté dos Mendes,-19.191238301813,-46.2427530916275
Rio Pardo de Minas,3155603,MG,Rio Pardo de Minas,5,Rio Pardo de Minas,-15.6130780188597,-42.5412319786549
"Serra Nova Rio Pardo de Minas ",3155603,MG,Rio Pardo de Minas,25,Serra Nova,-15.6130780188597,-42.5412319786549
Rio Piracicaba,3155702,MG,Rio Piracicaba,5,Rio Piracicaba,-19.9549411680991,-43.1798237456688
"Conceição de Piracicaba Rio Piracicaba ",3155702,MG,Rio Piracicaba,10,Conceição de Piracicaba,-19.9549411680991,-43.1798237456688
"Padre Pinto Rio Piracicaba ",3155702,MG,Rio Piracicaba,15,Padre Pinto,-19.9549411680991,-43.1798237456688
Rio Pomba,3155801,MG,Rio Pomba,5,Rio Pomba,-21.2721906098132,-43.1778056454032
Rio Preto,3155900,MG,Rio Preto,5,Rio Preto,-22.0869222524551,-43.8294656655803
Rio Vermelho,3156007,MG,Rio Vermelho,5,Rio Vermelho,-18.3011105692073,-43.0224390980622
"Pedra Menina Rio Vermelho ",3156007,MG,Rio Vermelho,10,Pedra Menina,-18.3011105692073,-43.0224390980622
Ritapolis,3156106,MG,Ritápolis,5,Ritápolis,-21.0232532704209,-44.3234775238384
Rochedo de Minas,3156205,MG,Rochedo de Minas,5,Rochedo de Minas,-21.6314596314615,-43.0220685053826
Rodeiro,3156304,MG,Rodeiro,5,Rodeiro,-21.200705079223,-42.8686762586127
