name,ibge_code,state,capital,category_number,label_name,latitude,longitude
Acrelandia,1200013,AC,Acrelândia,5,Acrelândia,-10.0737938924635,-67.0523165800206
Assis Brasil,1200054,AC,Assis Brasil,5,Assis Brasil,-10.9428656809172,-69.5634591746677
Brasiléia,1200104,AC,Brasiléia,5,Brasiléia,-11.0164110190858,-68.7479434259584
Bujari,1200138,AC,Bujari,5,Bujari,-9.82001962670938,-67.9518592792015
Capixaba,1200179,AC,Capixaba,5,Capixaba,-10.5697677087928,-67.6735079719432
Cruzeiro do Sul,1200203,AC,Cruzeiro do Sul,5,Cruzeiro do Sul,-7.63069000500981,-72.6725313174358
Epitaciolandia,1200252,AC,Epitaciolândia,5,Epitaciolândia,-11.0282398279564,-68.7448680666749
Feijó,1200302,AC,Feijó,5,Feijó,-8.16024753,-70.3539836082165
Jordao,1200328,AC,Jordão,5,Jordão,-9.19335785982848,-71.9508751248365
Mancio Lima,1200336,AC,Mâncio Lima,5,Mâncio Lima,-7.59322259385836,-72.9165010261308
Manoel Urbano,1200344,AC,Manoel Urbano,5,Manoel Urbano,-8.83631773689166,-69.2599445775075
Marechal Thaumaturgo,1200351,AC,Marechal Thaumaturgo,5,Marechal Thaumaturgo,-8.95359112315366,-72.7902659086983
Placido de Castro,1200385,AC,Plácido de Castro,5,Plácido de Castro,-10.3351332827427,-67.1882600861516
Campinas Placido de Castro,1200385,AC,Plácido de Castro,10,Campinas,-10.3351332827427,-67.1882600861516
Porto Acre,1200807,AC,Porto Acre,5,Porto Acre,-9.60085823118788,-67.5405900835194
"Vila do Caqueta Porto Acre ",1200807,AC,Porto Acre,20,Vila do Caquetá,-9.60085823118788,-67.5405900835194
"Vila do Incra Porto Acre ",1200807,AC,Porto Acre,23,Vila do Incra,-9.60085823118788,-67.5405900835194
"Vila do V Porto Acre ",1200807,AC,Porto Acre,25,Vila do V,-9.60085823118788,-67.5405900835194
Porto Walter,1200393,AC,Porto Walter,5,Porto Walter,-8.26666636282753,-72.7423339648033
Rio Branco,1200401,AC,Rio Branco,5,Rio Branco,1058,
Rodrigues Alves,1200427,AC,Rodrigues Alves,5,Rodrigues Alves,-7.73360203372322,-72.6478549141997
Santa Rosa do Purus,1200435,AC,Santa Rosa do Purus,5,Santa Rosa do Purus,-9.44340653741185,-70.4864968937616
Sena Madureira,1200500,AC,Sena Madureira,5,Sena Madureira,-9.065339505,-68.655684061692
Senador Guiomard,1200450,AC,Senador Guiomard,5,Senador Guiomard,-10.1481735861989,-67.7431723600051
Tarauaca,1200609,AC,Tarauacá,5,Tarauacá,-8.15566859176562,-70.7555010628937
Xapuri,1200708,AC,Xapuri,5,Xapuri,-10.6520719403355,-68.5062948050463
Agua Branca,2700102,AL,Água Branca,5,Água Branca,-9.26702549705051,-37.940715175965
Anadia,2700201,AL,Anadia,5,Anadia,-9.68408378505047,-36.3008135714461
Arapiraca,2700300,AL,Arapiraca,5,Arapiraca,-9.7559070107047,-36.6572965062872
Atalaia,2700409,AL,Atalaia,5,Atalaia,-23.1515870955391,-52.0557011364669
"Sapucaia Atalaia ",2700409,AL,Atalaia,10,Sapucaia,-23.1515870955391,-52.0557011364669
Barra de Santo Antônio,2700508,AL,Barra de Santo Antônio,5,Barra de Santo Antônio,-9.40927810936494,-35.5002980957816
Barra de São Miguel,2700607,AL,Barra de São Miguel,5,Barra de São Miguel,-9.83899825174925,-35.9074498726289
Batalha,2700706,AL,Batalha,5,Batalha,-9.67459302797037,-37.1270918944836
Belém,2700805,AL,Belém,5,Belém,-9.56864823133606,-36.4944979894058
Belo Monte,2700904,AL,Belo Monte,5,Belo Monte,-9.82698885476657,-37.2784386581653
Boca da Mata,2701001,AL,Boca da Mata,5,Boca da Mata,-9.64514456727259,-36.2117249001431
Branquinha,2701100,AL,Branquinha,5,Branquinha,-9.24658310830329,-36.0200335331731
Cacimbinhas,2701209,AL,Cacimbinhas,5,Cacimbinhas,-9.40516275105815,-36.9968696260236
Cajueiro,2701308,AL,Cajueiro,5,Cajueiro,-9.38966057508941,-36.1563785914086
Campestre,2701357,AL,Campestre,5,Campestre,-8.84837535315291,-35.5667177264544
Campo Alegre,2701407,AL,Campo Alegre,5,Campo Alegre,-9.78341603898408,-36.352434752197
Campo Grande,2701506,AL,Campo Grande,5,Campo Grande,-9.95692260332019,-36.7908400521347
Canapi,2701605,AL,Canapi,5,Canapi,-9.11738029758643,-37.6056471506351
Capela,2701704,AL,Capela,5,Capela,-9.4129315555221,-36.0750084923936
"Santa Efigenia Capela ",2701704,AL,Capela,10,Santa Efigênia,-9.4129315555221,-36.0750084923936
Carneiros,2701803,AL,Carneiros,5,Carneiros,-9.48067972087814,-37.3747504206165
Chã Preta,2701902,AL,Chã Preta,5,Chã Preta,-9.26142245940566,-36.2993814518778
Coité do Nóia,2702009,AL,Coité do Nóia,5,Coité do Nóia,-9.63848727077993,-36.5796842002285
Colônia Leopoldina,2702108,AL,Colônia Leopoldina,5,Colônia Leopoldina,-8.91268826995015,-35.7197808593936
Coqueiro Seco,2702207,AL,Coqueiro Seco,5,Coqueiro Seco,-9.63755427096993,-35.795363001733
Coruripe,2702306,AL,Coruripe,5,Coruripe,-10.1265472503749,-36.1760783105118
"Poxim Coruripe ",2702306,AL,Coruripe,10,Poxim,-10.1265472503749,-36.1760783105118
Craibas,2702355,AL,Craíbas,5,Craíbas,-9.61993379738632,-36.7723914019128
Delmiro Gouveia,2702405,AL,Delmiro Gouveia,5,Delmiro Gouveia,-9.38457444694075,-37.9992334861769
Dois Riachos,2702504,AL,Dois Riachos,5,Dois Riachos,-9.38567081154627,-37.0898496479493
Estrela de Alagoas,2702553,AL,Estrela de Alagoas,5,Estrela de Alagoas,-9.38740530657934,-36.7583331109668
Feira Grande,2702603,AL,Feira Grande,5,Feira Grande,-9.90043719889156,-36.6776855005338
Feliz Deserto,2702702,AL,Feliz Deserto,5,Feliz Deserto,-10.2923806198663,-36.3071875176995
Flexeiras,2702801,AL,Flexeiras,5,Flexeiras,-9.27323546004541,-35.7243716385672
Girau do Ponciano,2702900,AL,Girau do Ponciano,5,Girau do Ponciano,-9.8873641521582,-36.8303139029901
Ibateguara,2703007,AL,Ibateguara,5,Ibateguara,-8.97698521760536,-35.9311844564205
Igaci,2703106,AL,Igaci,5,Igaci,-9.53368865946465,-36.62815971645
Igreja Nova,2703205,AL,Igreja Nova,5,Igreja Nova,-10.1292988371728,-36.653345012518
Inhapi,2703304,AL,Inhapi,5,Inhapi,-9.22389877333184,-37.752636521046
Jacare dos Homens,2703403,AL,Jacaré dos Homens,5,Jacaré dos Homens,-9.63665882831559,-37.2078334090177
Jacuipe,2703502,AL,Jacuípe,5,Jacuípe,-8.84030050756405,-35.4609975081236
Japaratinga,2703601,AL,Japaratinga,5,Japaratinga,-9.08897435434458,-35.2586583540313
Jaramataia,2703700,AL,Jaramataia,5,Jaramataia,-9.65835193876392,-37.0035959132308
Jequia da Praia,2703759,AL,Jequiá da Praia,5,Jequiá da Praia,-10.0095918935695,-36.0273340429838
Joaquim Gomes,2703809,AL,Joaquim Gomes,5,Joaquim Gomes,-9.13597914629409,-35.749030258912
Jundia,2703908,AL,Jundiá,5,Jundiá,-8.93887675416228,-35.5555972975355
Junqueiro,2704005,AL,Junqueiro,5,Junqueiro,-9.93161038974245,-36.4715218222232
Lagoa da Canoa,2704104,AL,Lagoa da Canoa,5,Lagoa da Canoa,-9.83087565650446,-36.7357892600018
Limoeiro de Anadia,2704203,AL,Limoeiro de Anadia,5,Limoeiro de Anadia,-9.73861316781449,-36.5038970865
Maceió,2704302,AL,Maceió,5,Maceió,1058,
Major Isidoro,2704401,AL,Major Isidoro,5,Major Isidoro,-9.52664406793994,-36.9847996142241
"Riacho do Sertão Major Isidoro ",2704401,AL,Major Isidoro,10,Riacho do Sertão,-9.52664406793994,-36.9847996142241
Mar Vermelho,2704906,AL,Mar Vermelho,5,Mar Vermelho,-9.44777264348944,-36.3850400240272
Maragogi,2704500,AL,Maragogi,5,Maragogi,-9.0154564858241,-35.2230154091319
"Barra Grande Maragogi ",2704500,AL,Maragogi,10,Barra Grande,-9.0154564858241,-35.2230154091319
Maravilha,2704609,AL,Maravilha,5,Maravilha,-9.23399706335314,-37.3566354220481
Marechal Deodoro,2704708,AL,Marechal Deodoro,5,Marechal Deodoro,-9.73915570244381,-35.8930686988453
Maribondo,2704807,AL,Maribondo,5,Maribondo,-9.57724995600836,-36.3066028985381
Mata Grande,2705002,AL,Mata Grande,5,Mata Grande,-9.11480625764182,-37.7252240648916
Matriz de Camaragibe,2705101,AL,Matriz de Camaragibe,5,Matriz de Camaragibe,-9.15852582474625,-35.533554829803
Messias,2705200,AL,Messias,5,Messias,-9.39181222510958,-35.840378300501
Minador do Negrao,2705309,AL,Minador do Negrão,5,Minador do Negrão,-9.30368326063751,-36.864915772472
Monteiropolis,2705408,AL,Monteirópolis,5,Monteirópolis,-9.60232753886744,-37.2452720989471
Murici,2705507,AL,Murici,5,Murici,-9.31630114434686,-35.947555585677
Novo Lino,2705606,AL,Novo Lino,5,Novo Lino,-8.94315880807644,-35.6609637180966
Olho d Agua das Flores,2705705,AL,Olho d'Água das Flores,5,Olho d'Água das Flores,-9.532207999999999,-37.2947534
Olho d Agua do Casado,2705804,AL,Olho d'Água do Casado,5,Olho d'Água do Casado,-9.503997499999999,-37.830415
Olho d Agua Grande,2705903,AL,Olho d'Água Grande,5,Olho d'Água Grande,-10.0575967,-36.8104155
Olivenca,2706000,AL,Olivença,5,Olivença,-9.51945648335504,-37.1908187180627
Ouro Branco,2706109,AL,Ouro Branco,5,Ouro Branco,-9.163415364026,-37.3544437290231
Palestina,2706208,AL,Palestina,5,Palestina,-20.3905874702698,-49.4337823999184
Palmeira dos Indios,2706307,AL,Palmeira dos Índios,5,Palmeira dos Índios,-9.4061587984201,-36.6309840973114
"Caldeiroes de Cima Palmeira dos Indios ",2706307,AL,Palmeira dos Índios,10,Caldeirões de Cima,-9.4061587984201,-36.6309840973114
"Canafistula Palmeira dos Indios ",2706307,AL,Palmeira dos Índios,15,Canafístula,-9.4061587984201,-36.6309840973114
Pao de Acucar,2706406,AL,Pão de Açúcar,5,Pão de Açúcar,-9.74704185025694,-37.435138856573
"Limoeiro Pao de Acucar ",2706406,AL,Pão de Açúcar,10,Limoeiro,-9.74704185025694,-37.435138856573
Pariconha,2706422,AL,Pariconha,5,Pariconha,-9.25788438518493,-38.0098260716315
Paripueira,2706448,AL,Paripueira,5,Paripueira,-9.46631347833536,-35.5591051843043
Passo de Camaragibe,2706505,AL,Passo de Camaragibe,5,Passo de Camaragibe,-9.24484665799731,-35.4912752632186
Paulo Jacinto,2706604,AL,Paulo Jacinto,5,Paulo Jacinto,-9.3733643824119,-36.3727420945597
Penedo,2706703,AL,Penedo,5,Penedo,-10.2961102979024,-36.5804602140903
Piacabucu,2706802,AL,Piaçabuçu,5,Piaçabuçu,-10.4073624263407,-36.4343520081112
Pilar,2706901,AL,Pilar,5,Pilar,-9.60689429266684,-35.9485175199678
Pindoba,2707008,AL,Pindoba,5,Pindoba,-9.47621079980144,-36.2865406443458
Piranhas,2707107,AL,Piranhas,5,Piranhas,-9.62355920030328,-37.7503929130592
"Entremontes Piranhas ",2707107,AL,Piranhas,10,Entremontes,-9.62355920030328,-37.7503929130592
Poco das Trincheiras,2707206,AL,Poço das Trincheiras,5,Poço das Trincheiras,-9.30291365540457,-37.2792980528473
Porto Calvo,2707305,AL,Porto Calvo,5,Porto Calvo,-9.05244831413658,-35.3983344556037
Porto de Pedras,2707404,AL,Porto de Pedras,5,Porto de Pedras,-9.15608616311578,-35.2970152177328
"Tatuamunha Porto de Pedras ",2707404,AL,Porto de Pedras,10,Tatuamunha,-9.15608616311578,-35.2970152177328
Porto Real do Colegio,2707503,AL,Porto Real do Colégio,5,Porto Real do Colégio,-10.1737325641911,-36.8246292915239
Quebrangulo,2707602,AL,Quebrangulo,5,Quebrangulo,-9.32354705536581,-36.4772220766618
Rio Largo,2707701,AL,Rio Largo,5,Rio Largo,-9.48615760833584,-35.8524223085924
Roteiro,2707800,AL,Roteiro,5,Roteiro,-9.83218949018835,-35.9812102213933
Santa Luzia do Norte,2707909,AL,Santa Luzia do Norte,5,Santa Luzia do Norte,-9.59676774166949,-35.8234877698639
Santana do Ipanema,2708006,AL,Santana do Ipanema,5,Santana do Ipanema,-9.3722843627404,-37.2454070203705
Santana do Mundau,2708105,AL,Santana do Mundaú,5,Santana do Mundaú,-9.16503322076224,-36.2252341170425
"Munguba Santana do Mundau ",2708105,AL,Santana do Mundaú,10,Munguba,-9.16503322076224,-36.2252341170425
São Bras,2708204,AL,São Brás,5,São Brás,-10.1203099965729,-36.8989486552451
São José da Laje,2708303,AL,São José da Laje,5,São José da Laje,-9.01106588188022,-36.0573877321467
São José da Tapera,2708402,AL,São José da Tapera,5,São José da Tapera,-9.54939574043675,-37.3837077656992
São Luís do Quitunde,2708501,AL,São Luís do Quitunde,5,São Luís do Quitunde,-9.31411736924134,-35.5654908365835
São Miguel dos Campos,2708600,AL,São Miguel dos Campos,5,São Miguel dos Campos,-9.77993457613103,-36.0942642743776
São Miguel dos Milagres,2708709,AL,São Miguel dos Milagres,5,São Miguel dos Milagres,-9.26718629500207,-35.3691193336324
São Sebastião,2708808,AL,São Sebastião,5,São Sebastião,-9.93165738892367,-36.5510919020052
Satuba,2708907,AL,Satuba,5,Satuba,-9.56942786775773,-35.8285402270771
Senador Rui Palmeira,2708956,AL,Senador Rui Palmeira,5,Senador Rui Palmeira,-9.46339144898312,-37.4536462478126
Tanque d Arca,2709004,AL,Tanque d'Arca,5,Tanque d'Arca,-9.5349944,-36.4328486
Taquarana,2709103,AL,Taquarana,5,Taquarana,-9.64232010538379,-36.4967676919619
Teotonio Vilela,2709152,AL,Teotônio Vilela,5,Teotônio Vilela,-9.90749788301098,-36.3555631422205
Traipu,2709202,AL,Traipu,5,Traipu,-9.97105938200651,-37.0060056722452
Uniao dos Palmares,2709301,AL,União dos Palmares,5,União dos Palmares,-9.159524116522,-36.0331428428074
"Rocha Cavalcante Uniao dos Palmares ",2709301,AL,União dos Palmares,10,Rocha Cavalcante,-9.159524116522,-36.0331428428074
Vicosa,2709400,AL,Viçosa,5,Viçosa,-9.37705435448976,-36.2483932029197
"Anel Vicosa ",2709400,AL,Viçosa,10,Anel,-9.37705435448976,-36.2483932029197
Alvaraes,1300029,AM,Alvarães,5,Alvarães,-3.21658376906639,-64.8135346775686
Amatura,1300060,AM,Amaturá,5,Amaturá,-3.36680518750561,-68.2096146409404
Anama,1300086,AM,Anamã,5,Anamã,-3.57637042689027,-61.4059034797501
Anori,1300102,AM,Anori,5,Anori,-3.74538558611889,-61.6589553828779
Apui,1300144,AM,Apuí,5,Apuí,-7.1978701516076,-59.8856661047188
Atalaia do Norte,1300201,AM,Atalaia do Norte,5,Atalaia do Norte,-4.36615748971603,-70.1879892845226
Autazes,1300300,AM,Autazes,5,Autazes,-3.57866364177127,-59.1335670918168
"Murutinga Autazes ",1300300,AM,Autazes,10,Murutinga,-3.57866364177127,-59.1335670918168
Barcelos,1300409,AM,Barcelos,5,Barcelos,-0.972801052532191,-62.9256696581026
Barreirinha,1300508,AM,Barreirinha,5,Barreirinha,-2.7981498369298,-57.0677504898938
"Ariau Barreirinha ",1300508,AM,Barreirinha,10,Ariaú,-2.7981498369298,-57.0677504898938
"Cameta Barreirinha ",1300508,AM,Barreirinha,12,Cametá,-2.7981498369298,-57.0677504898938
"Freguesia do Andira Barreirinha ",1300508,AM,Barreirinha,15,Freguesia do Andirá,-2.7981498369298,-57.0677504898938
"Pedras Barreirinha ",1300508,AM,Barreirinha,20,Pedras,-2.7981498369298,-57.0677504898938
Benjamin Constant,1300607,AM,Benjamin Constant,5,Benjamin Constant,-4.37498901860391,-70.0273484332765
Beruri,1300631,AM,Beruri,5,Beruri,-3.89451340981806,-61.3715708916659
Boa Vista do Ramos,1300680,AM,Boa Vista do Ramos,5,Boa Vista do Ramos,-2.97172653158936,-57.5877073464737
"Lago Preto Boa Vista do Ramos ",1300680,AM,Boa Vista do Ramos,10,Lago Preto,-2.97172653158936,-57.5877073464737
"Massauari Boa Vista do Ramos ",1300680,AM,Boa Vista do Ramos,15,Massauari,-2.97172653158936,-57.5877073464737
Boca do Acre,1300706,AM,Boca do Acre,5,Boca do Acre,-8.75124319609379,-67.3995777566805
"Floriano Peixoto Boca do Acre ",1300706,AM,Boca do Acre,10,Floriano Peixoto,-8.75124319609379,-67.3995777566805
Borba,1300805,AM,Borba,5,Borba,-4.39061989147273,-59.5945590194969
Caapiranga,1300839,AM,Caapiranga,5,Caapiranga,-3.3300933919416,-61.2113341331817
Canutama,1300904,AM,Canutama,5,Canutama,-6.52910607582614,-64.3942308189288
Carauari,1301001,AM,Carauari,5,Carauari,-4.88166590420413,-66.8966352816837
Careiro,1301100,AM,Careiro,5,Careiro,-3.82244727004599,-60.3638098437089
Careiro da Varzea,1301159,AM,Careiro da Várzea,5,Careiro da Várzea,-3.1973965948696,-59.8263140608339
Coari,1301209,AM,Coari,5,Coari,-4.08421915877588,-63.1421839840562
Codajas,1301308,AM,Codajás,5,Codajás,-3.84304593273892,-62.0634296604883
Badajos Codajas,1301308,AM,Codajás,10,Badajos,-3.84304593273892,-62.0634296604883
Eirunepe,1301407,AM,Eirunepé,5,Eirunepé,-6.66735256685182,-69.8662902624416
Envira,1301506,AM,Envira,5,Envira,-7.43981754396838,-70.0304125429825
Fonte Boa,1301605,AM,Fonte Boa,5,Fonte Boa,-2.51227068454779,-66.0965029898347
Guajara,1301654,AM,Guajará,5,Guajará,-7.5477744148336,-72.5824305383396
Humaita,1301704,AM,Humaitá,5,Humaitá,-7.51222495061139,-63.0266980219283
Ipixuna,1301803,AM,Ipixuna,5,Ipixuna,-7.05098011443721,-71.6944180603084
Iranduba,1301852,AM,Iranduba,5,Iranduba,-3.2810538776069,-60.1933881661307
"Ariau Iranduba ",1301852,AM,Iranduba,10,Ariaú,-3.2810538776069,-60.1933881661307
"Cacau Pirera Iranduba ",1301852,AM,Iranduba,15,Cacau Pirêra,-3.2810538776069,-60.1933881661307
"Lago do Limao Iranduba ",1301852,AM,Iranduba,20,Lago do Limão,-3.2810538776069,-60.1933881661307
"Paricatuba Iranduba ",1301852,AM,Iranduba,25,Paricatuba,-3.2810538776069,-60.1933881661307
Itacoatiara,1301902,AM,Itacoatiara,5,Itacoatiara,-3.14037880391635,-58.4401754367571
Amatari Itacoatiara,1301902,AM,Itacoatiara,10,Amatari,-3.14037880391635,-58.4401754367571
Itamarati,1301951,AM,Itamarati,5,Itamarati,-6.43779934861918,-68.2479174359782
Itapiranga,1302009,AM,Itapiranga,5,Itapiranga,-2.74184275232884,-58.0345458839662
Japura,1302108,AM,Japurá,5,Japurá,-1.880844858703,-66.9969034946413
Jurua,1302207,AM,Juruá,5,Juruá,-3.47488959889068,-66.0630419255434
Jutai,1302306,AM,Jutaí,5,Jutaí,-2.74464644685786,-66.7713275466878
Labrea,1302405,AM,Lábrea,5,Lábrea,-7.26194655332705,-64.79477302752
Manacapuru,1302504,AM,Manacapuru,5,Manacapuru,-3.29827803546755,-60.6205894458706
Manaquiri,1302553,AM,Manaquiri,5,Manaquiri,-3.42907966935262,-60.4588813063745
Manaus,1302603,AM,Manaus,5,Manaus,1058,
Manicore,1302702,AM,Manicoré,5,Manicoré,-5.81320526118813,-61.2992484088508
Maraa,1302801,AM,Maraã,5,Maraã,-1.86643687730125,-65.5742837031641
Maues,1302900,AM,Maués,5,Maués,-3.38642792621106,-57.7150343867525
"Osorio da Fonseca Maues ",1302900,AM,Maués,10,Osório da Fonseca,-3.38642792621106,-57.7150343867525
"Repartimento Maues ",1302900,AM,Maués,15,Repartimento,-3.38642792621106,-57.7150343867525
Nhamunda,1303007,AM,Nhamundá,5,Nhamundá,-2.1889837668969,-56.7167699133376
Nova Olinda do Norte,1303106,AM,Nova Olinda do Norte,5,Nova Olinda do Norte,-3.88759283191138,-59.0930740260433
Novo Airao,1303205,AM,Novo Airão,5,Novo Airão,-2.62343245902763,-60.948810707829
Novo Aripuana,1303304,AM,Novo Aripuanã,5,Novo Aripuanã,-5.12266931419617,-60.3770456690009
Parintins,1303403,AM,Parintins,5,Parintins,-2.62705258583723,-56.7362921451951
"Mocambo Parintins ",1303403,AM,Parintins,10,Mocambo,-2.62705258583723,-56.7362921451951
Pauini,1303502,AM,Pauini,5,Pauini,-7.71404364432219,-67.0020974885282
Presidente Figueiredo,1303536,AM,Presidente Figueiredo,5,Presidente Figueiredo,-2.058429085233,-60.0256468344675
Balbina Presidente Figueiredo,1303536,AM,Presidente Figueiredo,10,Balbina,-2.058429085233,-60.0256468344675
Rio Preto da Eva,1303569,AM,Rio Preto da Eva,5,Rio Preto da Eva,-2.6933015416451,-59.704738094199
Santa Isabel do Rio Negro,1303601,AM,Santa Isabel do Rio Negro,5,Santa Isabel do Rio Negro,-0.416694831881864,-65.020022639512
Santo Antônio do Ica,1303700,AM,Santo Antônio do Içá,5,Santo Antônio do Içá,-3.10748630918151,-67.9464851438841
São Gabriel da Cachoeira,1303809,AM,São Gabriel da Cachoeira,5,São Gabriel da Cachoeira,-0.136462788116522,-67.0836428963463
"Cucui São Gabriel da Cachoeira ",1303809,AM,São Gabriel da Cachoeira,12,Cucui,-0.136462788116522,-67.0836428963463
"Icana São Gabriel da Cachoeira ",1303809,AM,São Gabriel da Cachoeira,15,Içana,-0.136462788116522,-67.0836428963463
"São Felipe São Gabriel da Cachoeira ",1303809,AM,São Gabriel da Cachoeira,20,São Felipe,-0.136462788116522,-67.0836428963463
São Paulo de Olivenca,1303908,AM,São Paulo de Olivença,5,São Paulo de Olivença,-3.46650962349132,-68.9448534881358
"Santa Rita São Paulo de Olivenca ",1303908,AM,São Paulo de Olivença,15,Santa Rita,-3.46650962349132,-68.9448534881358
São Sebastião do Uatuma,1303957,AM,São Sebastião do Uatumã,5,São Sebastião do Uatumã,-2.57015257967785,-57.8703463558346
Silves,1304005,AM,Silves,5,Silves,-2.83642742966584,-58.2148008608269
Tabatinga,1304062,AM,Tabatinga,5,Tabatinga,-4.23188367564665,-69.9462443752272
Tapaua,1304104,AM,Tapauá,5,Tapauá,-5.62422351778794,-63.1870948671802
Tefé,1304203,AM,Tefé,5,Tefé,-3.34837249394151,-64.7084196633027
Tonantins,1304237,AM,Tonantins,5,Tonantins,-2.86109124983543,-67.7764822806952
Uarini,1304260,AM,Uarini,5,Uarini,-2.9836092426921,-65.1553456401554
Urucara,1304302,AM,Urucará,5,Urucará,-2.53661167184038,-57.7598281745956
Urucurituba,1304401,AM,Urucurituba,5,Urucurituba,-3.1346331156473,-58.1596410413098
"Augusto Montenegro Urucurituba ",1304401,AM,Urucurituba,10,Augusto Montenegro,-3.1346331156473,-58.1596410413098
Amapa,1600105,AP,Amapá,5,Amapá,2.05392124468205,-50.7932144702699
"Sucuriju Amapa ",1600105,AP,Amapá,15,Sucuriju,2.05392124468205,-50.7932144702699
Calcoene,1600204,AP,Calçoene,5,Calçoene,2.49655904456698,-50.9447727342665
"Cunani Calcoene ",1600204,AP,Calçoene,10,Cunani,2.49655904456698,-50.9447727342665
"Lourenço Calcoene ",1600204,AP,Calçoene,15,Lourenço,2.49655904456698,-50.9447727342665
Cutias,1600212,AP,Cutias,5,Cutias,0.97107805541715,-50.8016260298776
Ferreira Gomes,1600238,AP,Ferreira Gomes,5,Ferreira Gomes,0.853977393142956,-51.1874290460046
Itaubal,1600253,AP,Itaubal,5,Itaubal,0.600653288304609,-50.7001794374183
Laranjal do Jari,1600279,AP,Laranjal do Jari,5,Laranjal do Jari,-0.8556645,-52.5390207369393
"Carapanantuba Macapa ",1600303,AP,Macapá,11,Carapanantuba,0.035368,-51.064789
"Fazendinha Macapa ",1600303,AP,Macapá,12,Fazendinha,-0.0317035,-51.127931
"São Joaquim do Pacui Macapa ",1600303,AP,Macapá,24,São Joaquim do Pacuí,0.8136692999999999,-50.7449673
Macapá,1600303,AP,Macapá,5,Macapá,1058,
Bailique Macapa,1600303,AP,Macapá,10,Bailique,0.8674337999999999,-50.0578754
Mazagao,1600402,AP,Mazagão,5,Mazagão,-0.124396328821101,-51.2860768561013
"Carvao Mazagao ",1600402,AP,Mazagão,8,Carvão,-0.124396328821101,-51.2860768561013
"Mazagao Velho Mazagao ",1600402,AP,Mazagão,15,Mazagão Velho,-0.124396328821101,-51.2860768561013
Oiapoque,1600501,AP,Oiapoque,5,Oiapoque,3.85113073255929,-51.8305525552731
"Clevelandia do Norte Oiapoque ",1600501,AP,Oiapoque,10,Clevelândia do Norte,3.85113073255929,-51.8305525552731
"Vila Velha Oiapoque ",1600501,AP,Oiapoque,15,Vila Velha,3.85113073255929,-51.8305525552731
Pedra Branca do Amapari,1600154,AP,Pedra Branca do Amapari,5,Pedra Branca do Amapari,-5.4546855,-39.7139376447036
Porto Grande,1600535,AP,Porto Grande,5,Porto Grande,0.712554701824323,-51.4144488229915
Pracuuba,1600550,AP,Pracuúba,5,Pracuúba,1.74250848707834,-50.7842537212883
Santana,1600600,AP,Santana,5,Santana,-0.0383734790956603,-51.1728464650687
"Anauerapucu Santana ",1600600,AP,Santana,7,Anauerapucu,-0.0383734790956603,-51.1728464650687
"Igarape do Lago Santana ",1600600,AP,Santana,10,Igarapé do Lago,-0.0383734790956603,-51.1728464650687
"Ilha de Santana Santana ",1600600,AP,Santana,15,Ilha de Santana,-0.0383734790956603,-51.1728464650687
"Piacaca Santana ",1600600,AP,Santana,20,Piaçacá,-0.0383734790956603,-51.1728464650687
"Pirativa Santana ",1600600,AP,Santana,23,Pirativa,-0.0383734790956603,-51.1728464650687
Serra do Navio,1600055,AP,Serra do Navio,5,Serra do Navio,0.897841040971924,-52.0035384352918
"Cachaco Serra do Navio ",1600055,AP,Serra do Navio,10,Cachaço,0.897841040971924,-52.0035384352918
Tartarugalzinho,1600709,AP,Tartarugalzinho,5,Tartarugalzinho,1.50984824031107,-50.9127861523142
Vitória do Jari,1600808,AP,Vitória do Jari,5,Vitória do Jari,-0.918977088542799,-52.4196147795718
Abaira,2900108,BA,Abaíra,5,Abaíra,-13.2535318932762,-41.661608480236
"Catoles Abaira ",2900108,BA,Abaíra,10,Catolés,-13.2535318932762,-41.661608480236
Abare,2900207,BA,Abaré,5,Abaré,-8.72341824568634,-39.1165879396428
"Ibo Abare ",2900207,BA,Abaré,10,Ibó,-8.72341824568634,-39.1165879396428
Acajutiba,2900306,BA,Acajutiba,5,Acajutiba,-11.6626128300483,-38.0182863705796
Adustina,2900355,BA,Adustina,5,Adustina,-10.5295715700202,-38.1155058347825
Agua Fria,2900405,BA,Água Fria,5,Água Fria,-11.8729309975791,-38.7680777950043
"Pataiba Agua Fria ",2900405,BA,Água Fria,10,Pataíba,-11.8729309975791,-38.7680777950043
Aiquara,2900603,BA,Aiquara,5,Aiquara,-14.1272774885543,-39.8857780091229
Alagoinhas,2900702,BA,Alagoinhas,5,Alagoinhas,-12.1341825924055,-38.4226157693395
"Boa Uniao Alagoinhas ",2900702,BA,Alagoinhas,15,Boa União,-12.1341825924055,-38.4226157693395
"Riacho da Guia Alagoinhas ",2900702,BA,Alagoinhas,20,Riacho da Guia,-12.1341825924055,-38.4226157693395
Alcobaca,2900801,BA,Alcobaça,5,Alcobaça,-17.5189333438062,-39.1942143206578
"São José Alcobaca ",2900801,BA,Alcobaça,25,São José,-17.5189333438062,-39.1942143206578
Almadina,2900900,BA,Almadina,5,Almadina,-14.7060477475217,-39.6359031752447
Amargosa,2901007,BA,Amargosa,5,Amargosa,-13.0344513621971,-39.5981225034895
"Corta Mao Amargosa ",2901007,BA,Amargosa,10,Corta Mão,-13.0344513621971,-39.5981225034895
"Diogenes Sampaio Amargosa ",2901007,BA,Amargosa,15,Diógenes Sampaio,-13.0344513621971,-39.5981225034895
"Itachama Amargosa ",2901007,BA,Amargosa,20,Itachama,-13.0344513621971,-39.5981225034895
Amelia Rodrigues,2901106,BA,Amélia Rodrigues,5,Amélia Rodrigues,-12.4001884013071,-38.7555569164417
"Inhata Amelia Rodrigues ",2901106,BA,Amélia Rodrigues,10,Inhatá,-12.4001884013071,-38.7555569164417
"Mata da Alianca Amelia Rodrigues ",2901106,BA,Amélia Rodrigues,15,Mata da Aliança,-12.4001884013071,-38.7555569164417
America Dourada,2901155,BA,América Dourada,5,América Dourada,-11.4496458647759,-41.4371632791237
Belo Campo America Dourada,2901155,BA,América Dourada,10,Belo Campo,-11.4496458647759,-41.4371632791237
"Prevenido America Dourada ",2901155,BA,América Dourada,15,Prevenido,-11.4496458647759,-41.4371632791237
"Soares America Dourada ",2901155,BA,América Dourada,20,Soares,-11.4496458647759,-41.4371632791237
Anage,2901205,BA,Anagé,5,Anagé,-14.6113255924937,-41.1271131685047
"Coquinhos Anage ",2901205,BA,Anagé,10,Coquinhos,-14.6113255924937,-41.1271131685047
Andarai,2901304,BA,Andaraí,5,Andaraí,-12.8013506460241,-41.3246418039988
"Igatu Andarai ",2901304,BA,Andaraí,10,Igatu,-12.8013506460241,-41.3246418039988
"Ubiraita Andarai ",2901304,BA,Andaraí,20,Ubiraitá,-12.8013506460241,-41.3246418039988
Andorinha,2901353,BA,Andorinha,5,Andorinha,-10.3442400415346,-39.8323357010101
"Sítio da Barauna Andorinha ",2901353,BA,Andorinha,10,Sítio da Baraúna,-10.3442400415346,-39.8323357010101
"Tanquinho do Poco Andorinha ",2901353,BA,Andorinha,15,Tanquinho do Poço,-10.3442400415346,-39.8323357010101
Angical,2901403,BA,Angical,5,Angical,-12.0066827725325,-44.6958234827073
"Missao de Aricobe Angical ",2901403,BA,Angical,15,Missão de Aricobé,-12.0066827725325,-44.6958234827073
Anguera,2901502,BA,Anguera,5,Anguera,-12.1495870700754,-39.2484989182822
Antas,2901601,BA,Antas,5,Antas,-10.4127021692653,-38.3310416783347
Antônio Cardoso,2901700,BA,Antônio Cardoso,5,Antônio Cardoso,-12.4348389094768,-39.1186615354614
"Oleiro Antônio Cardoso ",2901700,BA,Antônio Cardoso,12,Oleiro,-12.4348389094768,-39.1186615354614
"Poco Antônio Cardoso ",2901700,BA,Antônio Cardoso,15,Poço,-12.4348389094768,-39.1186615354614
"Santo Estevao Velho Antônio Cardoso ",2901700,BA,Antônio Cardoso,20,Santo Estevão Velho,-12.4348389094768,-39.1186615354614
Antônio Goncalves,2901809,BA,Antônio Gonçalves,5,Antônio Gonçalves,-10.5757977912944,-40.2756586985804
Apora,2901908,BA,Aporá,5,Aporá,-11.6553942918973,-38.0799953494517
"Itamira Apora ",2901908,BA,Aporá,10,Itamira,-11.6553942918973,-38.0799953494517
Apuarema,2901957,BA,Apuarema,5,Apuarema,-13.853228848819,-39.7421321165047
Aracas,2902054,BA,Araças,5,Araças,-12.2151996675491,-38.1982880171949
Aracatu,2902005,BA,Aracatu,5,Aracatu,-14.4266302419957,-41.4616853206574
Araci,2902104,BA,Araci,5,Araci,-11.3357278753122,-38.9609581594029
Aramari,2902203,BA,Aramari,5,Aramari,-12.0881829783087,-38.5030663542087
Arataca,2902252,BA,Arataca,5,Arataca,-15.260872997351,-39.4132815657126
"Itatingui Arataca ",2902252,BA,Arataca,10,Itatingui,-15.260872997351,-39.4132815657126
Aratuipe,2902302,BA,Aratuípe,5,Aratuípe,-13.0805965410127,-39.0029108659812
"Maragogipinho Aratuipe ",2902302,BA,Aratuípe,10,Maragogipinho,-13.0805965410127,-39.0029108659812
Aurelino Leal,2902401,BA,Aurelino Leal,5,Aurelino Leal,-14.3169494479569,-39.3219966377059
"Laje do Banco Aurelino Leal ",2902401,BA,Aurelino Leal,10,Laje do Banco,-14.3169494479569,-39.3219966377059
"Poco Central Aurelino Leal ",2902401,BA,Aurelino Leal,15,Poço Central,-14.3169494479569,-39.3219966377059
Baianopolis,2902500,BA,Baianópolis,5,Baianópolis,-12.3041247007939,-44.5360980467187
"Varzeas Baianopolis ",2902500,BA,Baianópolis,10,Várzeas,-12.3041247007939,-44.5360980467187
Baixa Grande,2902609,BA,Baixa Grande,5,Baixa Grande,-11.9593574889724,-40.1668609095132
Banzae,2902658,BA,Banzaê,5,Banzaê,-10.5740919358198,-38.6118696305729
Barra,2902708,BA,Barra,5,Barra,-11.0889548205462,-43.1436385524586
"Ibiraba Barra ",2902708,BA,Barra,15,Ibiraba,-11.0889548205462,-43.1436385524586
"Igarite Barra ",2902708,BA,Barra,20,Igarité,-11.0889548205462,-43.1436385524586
Barra da Estiva,2902807,BA,Barra da Estiva,5,Barra da Estiva,-13.6202045630406,-41.3316958704896
"Triunfo do Sincora Barra da Estiva ",2902807,BA,Barra da Estiva,10,Triunfo do Sincora,-13.6202045630406,-41.3316958704896
Barra do Choca,2902906,BA,Barra do Choça,5,Barra do Choça,-14.864273042783,-40.5763729895987
"Barra Nova Barra do Choca ",2902906,BA,Barra do Choça,10,Barra Nova,-14.864273042783,-40.5763729895987
Barra do Mendes,2903003,BA,Barra do Mendes,5,Barra do Mendes,-11.8088282812611,-42.0591284156826
"Antari Barra do Mendes ",2903003,BA,Barra do Mendes,7,Antari,-11.8088282812611,-42.0591284156826
"Minas do Espirito Santo Barra do Mendes ",2903003,BA,Barra do Mendes,10,Minas do Espírito Santo,-11.8088282812611,-42.0591284156826
Barra do Rocha,2903102,BA,Barra do Rocha,5,Barra do Rocha,-14.210029248501,-39.601386089866
Barreiras,2903201,BA,Barreiras,5,Barreiras,-12.1449248883906,-45.0041684370285
Barro Alto,2903235,BA,Barro Alto,5,Barro Alto,-14.9737085965343,-48.9157070788234
"Lagoa do Boi Barro Alto ",2903235,BA,Barro Alto,10,Lagoa do Boi,-14.9737085965343,-48.9157070788234
"Lagoa Funda Barro Alto ",2903235,BA,Barro Alto,15,Lagoa Funda,-14.9737085965343,-48.9157070788234
Barro Preto,2903300,BA,Barro Preto,5,Barro Preto,-14.8097543871027,-39.4733346713801
Barrocas,2903276,BA,Barrocas,5,Barrocas,-11.5291128520783,-39.0786688809182
Belmonte,2903409,BA,Belmonte,5,Belmonte,-15.8613964917869,-38.8803032385601
"Boca do Corrego Belmonte ",2903409,BA,Belmonte,10,Boca do Córrego,-15.8613964917869,-38.8803032385601
"Mogiquicaba Belmonte ",2903409,BA,Belmonte,15,Mogiquiçaba,-15.8613964917869,-38.8803032385601
Belo Campo,2903508,BA,Belo Campo,5,Belo Campo,-15.0334961972012,-41.2600334790203
Biritinga,2903607,BA,Biritinga,5,Biritinga,-11.6201102629816,-38.8121589228975
Boa Nova,2903706,BA,Boa Nova,5,Boa Nova,-14.3626079430408,-40.2005218938254
Boa Vista do Tupim,2903805,BA,Boa Vista do Tupim,5,Boa Vista do Tupim,-12.6613221925482,-40.6057428240473
"Brejo Novo Boa Vista do Tupim ",2903805,BA,Boa Vista do Tupim,10,Brejo Novo,-12.6613221925482,-40.6057428240473
Bom Jesus da Lapa,2903904,BA,Bom Jesus da Lapa,5,Bom Jesus da Lapa,-13.2541143730901,-43.417141642139
"Favelandia Bom Jesus da Lapa ",2903904,BA,Bom Jesus da Lapa,7,Favelândia,-13.2541143730901,-43.417141642139
"Formoso Bom Jesus da Lapa ",2903904,BA,Bom Jesus da Lapa,10,Formoso,-13.2541143730901,-43.417141642139
Bom Jesus da Serra,2903953,BA,Bom Jesus da Serra,5,Bom Jesus da Serra,-14.3729222943841,-40.501176329753
"Agua Bela Bom Jesus da Serra ",2903953,BA,Bom Jesus da Serra,10,Água Bela,-14.3729222943841,-40.501176329753
Boninal,2904001,BA,Boninal,5,Boninal,-12.7151207923139,-41.8243284848072
"Bastiao Boninal ",2904001,BA,Boninal,10,Bastião,-12.7151207923139,-41.8243284848072
Bonito,2904050,BA,Bonito,5,Bonito,-11.9695725020911,-41.2684027881505
Boquira,2904100,BA,Boquira,5,Boquira,-12.8208228300175,-42.7301154012176
"Bucuituba Boquira ",2904100,BA,Boquira,10,Bucuituba,-12.8208228300175,-42.7301154012176
Botupora,2904209,BA,Botuporã,5,Botuporã,-13.3808662136783,-42.5292775589668
Brejoes,2904308,BA,Brejões,5,Brejões,-13.105536483186,-39.7934915926573
Brejolandia,2904407,BA,Brejolândia,5,Brejolândia,-12.486693342119,-43.9656645942921
Brotas de Macaubas,2904506,BA,Brotas de Macaúbas,5,Brotas de Macaúbas,-12.0026355373041,-42.6246912893431
"Ouricuri do Ouro Brotas de Macaubas ",2904506,BA,Brotas de Macaúbas,10,Ouricuri do Ouro,-12.0026355373041,-42.6246912893431
"Saudavel Brotas de Macaubas ",2904506,BA,Brotas de Macaúbas,15,Saudável,-12.0026355373041,-42.6246912893431
Brumado,2904605,BA,Brumado,5,Brumado,-14.2054382406597,-41.6670695036664
"Cristalandia Brumado ",2904605,BA,Brumado,10,Cristalândia,-14.2054382406597,-41.6670695036664
"Itaquarai Brumado ",2904605,BA,Brumado,15,Itaquaraí,-14.2054382406597,-41.6670695036664
"Ubiracaba Brumado ",2904605,BA,Brumado,20,Ubiraçaba,-14.2054382406597,-41.6670695036664
Buerarema,2904704,BA,Buerarema,5,Buerarema,-14.9564408366046,-39.3025196057871
Buritirama,2904753,BA,Buritirama,5,Buritirama,-10.7117914663194,-43.6313808982398
Caatiba,2904803,BA,Caatiba,5,Caatiba,-14.9785506351839,-40.4102724753438
Cabaceiras do Paraguacu,2904852,BA,Cabaceiras do Paraguaçu,5,Cabaceiras do Paraguaçu,-12.5371357853541,-39.1867130922404
"Geolandia Cabaceiras do Paraguacu ",2904852,BA,Cabaceiras do Paraguaçu,10,Geolândia,-12.5371357853541,-39.1867130922404
Cachoeira,2904902,BA,Cachoeira,5,Cachoeira,-12.5962107984627,-38.9693980689823
Belém da Cachoeira Cachoeira,2904902,BA,Cachoeira,10,Belém da Cachoeira,-12.5962107984627,-38.9693980689823
"Santiago do Iguape Cachoeira ",2904902,BA,Cachoeira,15,Santiago do Iguape,-12.5962107984627,-38.9693980689823
Cacule,2905008,BA,Caculé,5,Caculé,-14.5042061971359,-42.2214140996087
Caem,2905107,BA,Caém,5,Caém,-11.0930915174846,-40.4373119407154
Caetanos,2905156,BA,Caetanos,5,Caetanos,-14.3385629673677,-40.9092896392257
"Alegre Caetanos ",2905156,BA,Caetanos,10,Alegre,-14.3385629673677,-40.9092896392257
"Caldeirao Caetanos ",2905156,BA,Caetanos,15,Caldeirão,-14.3385629673677,-40.9092896392257
Caetite,2905206,BA,Caetité,5,Caetité,-14.0667543191246,-42.4857114474597
"Brejinho das Ametistas Caetite ",2905206,BA,Caetité,10,Brejinho das Ametistas,-14.0667543191246,-42.4857114474597
"Caldeiras Caetite ",2905206,BA,Caetité,15,Caldeiras,-14.0667543191246,-42.4857114474597
"Maniacu Caetite ",2905206,BA,Caetité,25,Maniaçu,-14.0667543191246,-42.4857114474597
"Pajeu do Vento Caetite ",2905206,BA,Caetité,30,Pajeú do Vento,-14.0667543191246,-42.4857114474597
Cafarnaum,2905305,BA,Cafarnaum,5,Cafarnaum,-11.6913562190577,-41.4722215133285
"Canal Cafarnaum ",2905305,BA,Cafarnaum,10,Canal,-11.6913562190577,-41.4722215133285
Cairu,2905404,BA,Cairu,5,Cairu,-13.4876034013497,-39.0432543550852
"Galeao Cairu ",2905404,BA,Cairu,10,Galeão,-13.4876034013497,-39.0432543550852
"Gamboa Cairu ",2905404,BA,Cairu,15,Gamboa,-13.4876034013497,-39.0432543550852
"Velha Boipeba Cairu ",2905404,BA,Cairu,20,Velha Boipeba,-13.4876034013497,-39.0432543550852
Caldeirao Grande,2905503,BA,Caldeirão Grande,5,Caldeirão Grande,-11.0221557768896,-40.307370359496
"São João do Panelinha Camacan ",2905602,BA,20,São João do Panelinha,-15.417626851831,-39.4963673314917,
Camacari,2905701,BA,Camaçari,5,Camaçari,-12.69881676,-38.3257400620652
"Abrantes Camacari ",2905701,BA,Camaçari,10,Abrantes,-12.69881676,-38.3257400620652
"Monte Gordo Camacari ",2905701,BA,Camaçari,20,Monte Gordo,-12.69881676,-38.3257400620652
Camamu,2905800,BA,Camamu,5,Camamu,-13.9470763405896,-39.1005697174881
"Barcelos do Sul Camamu ",2905800,BA,Camamu,10,Barcelos do Sul,-13.9470763405896,-39.1005697174881
"Tapuia Camamu ",2905800,BA,Camamu,20,Tapuia,-13.9470763405896,-39.1005697174881
Campo Alegre de Lourdes,2905909,BA,Campo Alegre de Lourdes,5,Campo Alegre de Lourdes,-9.51715411399994,-43.0122984390904
"Peixe Campo Alegre de Lourdes ",2905909,BA,Campo Alegre de Lourdes,10,Peixe,-9.51715411399994,-43.0122984390904
Campo Formoso,2906006,BA,Campo Formoso,5,Campo Formoso,-10.5056615545438,-40.3188209870999
"Laje dos Negros Campo Formoso ",2906006,BA,Campo Formoso,15,Laje dos Negros,-10.5056615545438,-40.3188209870999
Canapolis,2906105,BA,Canápolis,5,Canápolis,-18.7216637220479,-49.2040544543899
Canarana,2906204,BA,Canarana,5,Canarana,-11.6875833139667,-41.7654922319867
"Paz de Salobro Canarana ",2906204,BA,Canarana,20,Paz de Salobro,-11.6875833139667,-41.7654922319867
Canavieiras,2906303,BA,Canavieiras,5,Canavieiras,-15.6797774765314,-38.9473758746396
"Ouricana Canavieiras ",2906303,BA,Canavieiras,15,Ouricana,-15.6797774765314,-38.9473758746396
"Poxim do Sul Canavieiras ",2906303,BA,Canavieiras,20,Poxim do Sul,-15.6797774765314,-38.9473758746396
Candeal,2906402,BA,Candeal,5,Candeal,-11.8049702300289,-39.1237184954764
Candeias,2906501,BA,Candeias,5,Candeias,-12.6719227052682,-38.5435962675254
"Caboto Candeias ",2906501,BA,Candeias,10,Caboto,-12.6719227052682,-38.5435962675254
"Caroba Candeias ",2906501,BA,Candeias,15,Caroba,-12.6719227052682,-38.5435962675254
"Madeira Candeias ",2906501,BA,Candeias,20,Madeira,-12.6719227052682,-38.5435962675254
"Menino Jesus Candeias ",2906501,BA,Candeias,25,Menino Jesus,-12.6719227052682,-38.5435962675254
"Passagem dos Teixeiras Candeias ",2906501,BA,Candeias,30,Passagem dos Teixeiras,-12.6719227052682,-38.5435962675254
"Passe Candeias ",2906501,BA,Candeias,35,Passé,-12.6719227052682,-38.5435962675254
Candiba,2906600,BA,Candiba,5,Candiba,-14.4131865031095,-42.8644023352399
"Piloes Candiba ",2906600,BA,Candiba,15,Pilões,-14.4131865031095,-42.8644023352399
Candido Sales,2906709,BA,Cândido Sales,5,Cândido Sales,-15.5060663507903,-41.2411175945831
"Lagoa Grande Candido Sales ",2906709,BA,Cândido Sales,15,Lagoa Grande,-15.5060663507903,-41.2411175945831
"Quaracu Candido Sales ",2906709,BA,Cândido Sales,20,Quaraçu,-15.5060663507903,-41.2411175945831
Cansancao,2906808,BA,Cansanção,5,Cansanção,-10.6667499148657,-39.4966050064607
Canudos,2906824,BA,Canudos,5,Canudos,-9.8906729609418,-39.024071242689
Bedengo Canudos,2906824,BA,Canudos,10,Bedengó,-9.8906729609418,-39.024071242689
Capela do Alto Alegre,2906857,BA,Capela do Alto Alegre,5,Capela do Alto Alegre,-11.6700816433262,-39.8353553091028
Capim Grosso,2906873,BA,Capim Grosso,5,Capim Grosso,-11.3815744576449,-40.0110006117175
Caraibas,2906899,BA,Caraíbas,5,Caraíbas,-14.72206949374,-41.2654313236692
"Vila Mariana Caraibas ",2906899,BA,Caraíbas,40,Vila Mariana,-14.72206949374,-41.2654313236692
Caravelas,2906907,BA,Caravelas,5,Caravelas,-17.7333705274895,-39.2533822213722
"Juerana Caravelas ",2906907,BA,Caravelas,10,Juerana,-17.7333705274895,-39.2533822213722
"Ponta da Areia Caravelas ",2906907,BA,Caravelas,15,Ponta da Areia,-17.7333705274895,-39.2533822213722
"Santo Antônio de Barcelona Caravelas ",2906907,BA,Caravelas,20,Santo Antônio de Barcelona,-17.7333705274895,-39.2533822213722
Cardeal da Silva,2907004,BA,Cardeal da Silva,5,Cardeal da Silva,-11.9407674063607,-37.9454765829698
Carinhanha,2907103,BA,Carinhanha,5,Carinhanha,-14.3020069035503,-43.7617772009392
"Barra da Parateca Carinhanha ",2907103,BA,Carinhanha,10,Barra da Parateca,-14.3020069035503,-43.7617772009392
Casa Nova,2907202,BA,Casa Nova,5,Casa Nova,-9.17859457408863,-40.9757969268709
Bem Bom Casa Nova,2907202,BA,Casa Nova,10,Bem-Bom,-9.17859457408863,-40.9757969268709
"Luís Viana Casa Nova ",2907202,BA,Casa Nova,15,Luís Viana,-9.17859457408863,-40.9757969268709
"Pau a Pique Casa Nova ",2907202,BA,Casa Nova,20,Pau a Pique,-9.17859457408863,-40.9757969268709
"Sobrado Casa Nova ",2907202,BA,Casa Nova,25,Sobrado,-9.17859457408863,-40.9757969268709
Castro Alves,2907301,BA,Castro Alves,5,Castro Alves,-12.7658326369124,-39.426519430322
"Crussai Castro Alves ",2907301,BA,Castro Alves,15,Crussai,-12.7658326369124,-39.426519430322
"Petim Castro Alves ",2907301,BA,Castro Alves,25,Petim,-12.7658326369124,-39.426519430322
"Sítio do Meio Castro Alves ",2907301,BA,Castro Alves,30,Sítio do Meio,-12.7658326369124,-39.426519430322
Catolandia,2907400,BA,Catolândia,5,Catolândia,-12.3160059384947,-44.8597702833594
Catu,2907509,BA,Catu,5,Catu,-12.3551865588507,-38.3762943035541
Bela Flor Catu,2907509,BA,Catu,10,Bela Flor,-12.3551865588507,-38.3762943035541
"Sítio Novo Catu ",2907509,BA,Catu,15,Sítio Novo,-12.3551865588507,-38.3762943035541
Caturama,2907558,BA,Caturama,5,Caturama,-13.3282013504011,-42.2964066437467
Central,2907608,BA,Central,5,Central,-11.137988582854,-42.1123489751401
Chorrocho,2907707,BA,Chorrochó,5,Chorrochó,-8.97547780401288,-39.1023700774151
Cicero Dantas,2907806,BA,Cícero Dantas,5,Cícero Dantas,-10.5921715319251,-38.3834191278696
"São João da Fortaleza Cicero Dantas ",2907806,BA,Cícero Dantas,15,São João da Fortaleza,-10.5921715319251,-38.3834191278696
Cipo,2907905,BA,Cipó,5,Cipó,-11.1011435641446,-38.5171293979405
Coaraci,2908002,BA,Coaraci,5,Coaraci,-14.6368142028023,-39.5523042559244
"Itamotinga Coaraci ",2908002,BA,Coaraci,10,Itamotinga,-14.6368142028023,-39.5523042559244
"São Roque Coaraci ",2908002,BA,Coaraci,20,São Roque,-14.6368142028023,-39.5523042559244
Cocos,2908101,BA,Cocos,5,Cocos,-14.1710775452171,-44.5456688581222
Conceição da Feira,2908200,BA,Conceição da Feira,5,Conceição da Feira,-12.503991911881,-38.9997807982437
Conceição do Almeida,2908309,BA,Conceição do Almeida,5,Conceição do Almeida,-12.7780203224236,-39.1709464493763
"Comercio Conceição do Almeida ",2908309,BA,Conceição do Almeida,10,Comércio,-12.7780203224236,-39.1709464493763
"Rio da Dona Conceição do Almeida ",2908309,BA,Conceição do Almeida,15,Rio da Dona,-12.7780203224236,-39.1709464493763
Conceição do Coite,2908408,BA,Conceição do Coité,5,Conceição do Coité,-11.5618258458634,-39.2816841782278
Bandiacu Conceição do Coite,2908408,BA,Conceição do Coité,6,Bandiaçu,-11.5618258458634,-39.2816841782278
"Joazeiro Conceição do Coite ",2908408,BA,Conceição do Coité,8,Joazeiro,-11.5618258458634,-39.2816841782278
"São João Conceição do Coite ",2908408,BA,Conceição do Coité,9,São João,-11.5618258458634,-39.2816841782278
"Salgadalia Conceição do Coite ",2908408,BA,Conceição do Coité,10,Salgadália,-11.5618258458634,-39.2816841782278
"Aroeira Conceição do Coite ",2908408,BA,Conceição do Coité,15,Aroeira,-11.5618258458634,-39.2816841782278
Conceição do Jacuipe,2908507,BA,Conceição do Jacuípe,5,Conceição do Jacuípe,-12.322946459029,-38.7636737165227
Conde,2908606,BA,Conde,5,Conde,-11.8134317610463,-37.6069779820631
Condeuba,2908705,BA,Condeúba,5,Condeúba,-14.8904103648485,-41.9708095383447
"Alegre Condeuba ",2908705,BA,Condeúba,8,Alegre,-14.8904103648485,-41.9708095383447
Contendas do Sincora,2908804,BA,Contendas do Sincorá,5,Contendas do Sincorá,-13.7554968278956,-41.0463180639509
"Caraibuna Contendas do Sincora ",2908804,BA,Contendas do Sincorá,10,Caraibuna,-13.7554968278956,-41.0463180639509
Coracao de Maria,2908903,BA,Coração de Maria,5,Coração de Maria,-12.2479210100615,-38.7505165473666
"Itacava Coracao de Maria ",2908903,BA,Coração de Maria,10,Itacava,-12.2479210100615,-38.7505165473666
"Retiro Coracao de Maria ",2908903,BA,Coração de Maria,30,Retiro,-12.2479210100615,-38.7505165473666
Cordeiros,2909000,BA,Cordeiros,5,Cordeiros,-15.0372341089128,-41.9357339067348
Coribe,2909109,BA,Coribe,5,Coribe,-13.8278416058215,-44.4530364349169
"Descoberto Coribe ",2909109,BA,Coribe,10,Descoberto,-13.8278416058215,-44.4530364349169
Coronel João Sa,2909208,BA,Coronel João Sá,5,Coronel João Sá,-10.279395400226,-37.9329643376141
Correntina,2909307,BA,Correntina,5,Correntina,-13.3417718212105,-44.641086701211
"São Manoel do Norte Correntina ",2909307,BA,Correntina,10,São Manoel do Norte,-13.3417718212105,-44.641086701211
Cotegipe,2909406,BA,Cotegipe,5,Cotegipe,-12.0285973836155,-44.2524761376623
"Jupagua Cotegipe ",2909406,BA,Cotegipe,10,Jupaguá,-12.0285973836155,-44.2524761376623
"Tagua Cotegipe ",2909406,BA,Cotegipe,15,Taguá,-12.0285973836155,-44.2524761376623
Cravolandia,2909505,BA,Cravolândia,5,Cravolândia,-13.3626230640403,-39.8127117486746
Crisopolis,2909604,BA,Crisópolis,5,Crisópolis,-11.5177899236101,-38.1517158173066
"Buril Crisopolis ",2909604,BA,Crisópolis,10,Buril,-11.5177899236101,-38.1517158173066
Cristopolis,2909703,BA,Cristópolis,5,Cristópolis,-12.2314508089662,-44.4118418963
Cruz das Almas,2909802,BA,Cruz das Almas,5,Cruz das Almas,-12.6637862127757,-39.1007361428306
Curaca,2909901,BA,Curaçá,5,Curaçá,-8.98903211797355,-39.908081018943
"Barro Vermelho Curaca ",2909901,BA,Curaçá,10,Barro Vermelho,-8.98903211797355,-39.908081018943
"Patamute Curaca ",2909901,BA,Curaçá,15,Patamuté,-8.98903211797355,-39.908081018943
"Poco de Fora Curaca ",2909901,BA,Curaçá,20,Poço de Fora,-8.98903211797355,-39.908081018943
"Riacho Seco Curaca ",2909901,BA,Curaçá,25,Riacho Seco,-8.98903211797355,-39.908081018943
Dario Meira,2910008,BA,Dário Meira,5,Dário Meira,-14.4350474388235,-39.9024656528413
Dias d Avila,2910057,BA,Dias d'Ávila,5,Dias d'Ávila,-12.6191964,-38.2929948
Dom Basilio,2910107,BA,Dom Basílio,5,Dom Basílio,-13.7633265545771,-41.7708775806957
Dom Macedo Costa,2910206,BA,Dom Macedo Costa,5,Dom Macedo Costa,-12.911489262313,-39.188094169582
Elisio Medrado,2910305,BA,Elísio Medrado,5,Elísio Medrado,-12.9433258382093,-39.5204855551496
"Monte Cruzeiro Elisio Medrado ",2910305,BA,Elísio Medrado,10,Monte Cruzeiro,-12.9433258382093,-39.5204855551496
Encruzilhada,2910404,BA,Encruzilhada,5,Encruzilhada,-15.5345801802607,-40.9091207501114
Entre Rios,2910503,BA,Entre Rios,5,Entre Rios,-11.9372613704434,-38.078777019756
"Ibatui Entre Rios ",2910503,BA,Entre Rios,10,Ibatuí,-11.9372613704434,-38.078777019756
"Subauma Entre Rios ",2910503,BA,Entre Rios,15,Subaúma,-11.9372613704434,-38.078777019756
Erico Cardoso,2900504,BA,Érico Cardoso,5,Érico Cardoso,-13.4223477953016,-42.1361637333109
Esplanada,2910602,BA,Esplanada,5,Esplanada,-11.799409496062,-37.9449814740986
"Palame Esplanada ",2910602,BA,Esplanada,10,Palame,-11.799409496062,-37.9449814740986
"São José do Mucambo Esplanada ",2910602,BA,Esplanada,20,São José do Mucambo,-11.799409496062,-37.9449814740986
Euclides da Cunha,2910701,BA,Euclides da Cunha,5,Euclides da Cunha,-10.5058180636519,-39.0142487251363
"Aribice Euclides da Cunha ",2910701,BA,Euclides da Cunha,7,Aribice,-10.5058180636519,-39.0142487251363
"Caimbe Euclides da Cunha ",2910701,BA,Euclides da Cunha,9,Caimbe,-10.5058180636519,-39.0142487251363
"Massacara Euclides da Cunha ",2910701,BA,Euclides da Cunha,15,Massacará,-10.5058180636519,-39.0142487251363
Eunapolis,2910727,BA,Eunápolis,5,Eunápolis,-16.3751672322564,-39.5841719409864
Fátima,2910750,BA,Fátima,5,Fátima,-10.6001702140173,-38.208674782863
Feira da Mata,2910776,BA,Feira da Mata,5,Feira da Mata,-14.2105645058372,-44.283463938437
"Ramalho Feira da Mata ",2910776,BA,Feira da Mata,20,Ramalho,-14.2105645058372,-44.283463938437
Feira de Santana,2910800,BA,Feira de Santana,5,Feira de Santana,-12.2292842524801,-38.9600330963214
Filadelfia,2910859,BA,Filadélfia,5,Filadélfia,-10.7384641099353,-40.1378268767837
Firmino Alves,2910909,BA,Firmino Alves,5,Firmino Alves,-14.9849353752521,-39.9214417636272
"Itaia Firmino Alves ",2910909,BA,Firmino Alves,10,Itaiá,-14.9849353752521,-39.9214417636272
Floresta Azul,2911006,BA,Floresta Azul,5,Floresta Azul,-14.8627983966227,-39.6565235874089
Formosa do Rio Preto,2911105,BA,Formosa do Rio Preto,5,Formosa do Rio Preto,-11.0470324906679,-45.190990909729
Gandu,2911204,BA,Gandu,5,Gandu,-13.7437807885113,-39.4863240792918
Gaviao,2911253,BA,Gavião,5,Gavião,-11.4708954591253,-39.786112929979
Gentio do Ouro,2911303,BA,Gentio do Ouro,5,Gentio do Ouro,-11.4275313127499,-42.5047423861031
"Gameleira do Assurua Gentio do Ouro ",2911303,BA,Gentio do Ouro,10,Gameleira do Assuruá,-11.4275313127499,-42.5047423861031
"Ibitunane Gentio do Ouro ",2911303,BA,Gentio do Ouro,15,Ibitunane,-11.4275313127499,-42.5047423861031
"Itajubaquara Gentio do Ouro ",2911303,BA,Gentio do Ouro,20,Itajubaquara,-11.4275313127499,-42.5047423861031
"Pituba Gentio do Ouro ",2911303,BA,Gentio do Ouro,23,Pituba,-11.4275313127499,-42.5047423861031
"Santo Inacio Gentio do Ouro ",2911303,BA,Gentio do Ouro,25,Santo Inácio,-11.4275313127499,-42.5047423861031
Glória,2911402,BA,Glória,5,Glória,-9.34017318364545,-38.2592732301041
Gongogi,2911501,BA,Gongogi,5,Gongogi,-14.3237132993301,-39.4672396549531
"Tapirama Gongogi ",2911501,BA,Gongogi,10,Tapirama,-14.3237132993301,-39.4672396549531
Governador Mangabeira,2911600,BA,Governador Mangabeira,5,Governador Mangabeira,-12.601553838445,-39.0340236148013
Guajeru,2911659,BA,Guajeru,5,Guajeru,-14.5469622716723,-41.9371481668575
Guanambi,2911709,BA,Guanambi,5,Guanambi,-14.2253150270076,-42.7785619667054
"Ceraima Guanambi ",2911709,BA,Guanambi,10,Ceraíma,-14.2253150270076,-42.7785619667054
"Morrinhos Guanambi ",2911709,BA,Guanambi,12,Morrinhos,-14.2253150270076,-42.7785619667054
"Mutas Guanambi ",2911709,BA,Guanambi,15,Mutãs,-14.2253150270076,-42.7785619667054
Guaratinga,2911808,BA,Guaratinga,5,Guaratinga,-16.5812160355631,-39.7812844707838
"Buranhem Guaratinga ",2911808,BA,Guaratinga,10,Buranhém,-16.5812160355631,-39.7812844707838
Heliopolis,2911857,BA,Heliópolis,5,Heliópolis,-10.6752987880285,-38.2802330422697
Iacu,2911907,BA,Iaçu,5,Iaçu,-12.7691377865306,-40.2133652349888
"João Amaro Iacu ",2911907,BA,Iaçu,10,João Amaro,-12.7691377865306,-40.2133652349888
"Lajedo Alto Iacu ",2911907,BA,Iaçu,15,Lajedo Alto,-12.7691377865306,-40.2133652349888
Ibiassuce,2912004,BA,Ibiassucê,5,Ibiassucê,-14.2767025345281,-42.2557743546652
Ibicarai,2912103,BA,Ibicaraí,5,Ibicaraí,-14.8657631413793,-39.5915412034881
Ibicoara,2912202,BA,Ibicoara,5,Ibicoara,-13.4263272087783,-41.2720658080785
"Cascavel Ibicoara ",2912202,BA,Ibicoara,15,Cascavel,-13.4263272087783,-41.2720658080785
Ibicui,2912301,BA,Ibicuí,5,Ibicuí,-14.8430903650876,-39.9898321056847
"Agua Doce Ibicui ",2912301,BA,Ibicuí,10,Água Doce,-14.8430903650876,-39.9898321056847
"Ibitupa Ibicui ",2912301,BA,Ibicuí,15,Ibitupã,-14.8430903650876,-39.9898321056847
Ibipeba,2912400,BA,Ibipeba,5,Ibipeba,-11.6375264431558,-42.011248439896
"Iguitu Ibipeba ",2912400,BA,Ibipeba,10,Iguitu,-11.6375264431558,-42.011248439896
"Lagoa Grande Ibipeba ",2912400,BA,Ibipeba,15,Lagoa Grande,-11.6375264431558,-42.011248439896
"Miroros Ibipeba ",2912400,BA,Ibipeba,20,Mirorós,-11.6375264431558,-42.011248439896
Ibipitanga,2912509,BA,Ibipitanga,5,Ibipitanga,-12.8791061453242,-42.4912287412418
Ibiquera,2912608,BA,Ibiquera,5,Ibiquera,-12.6499286126214,-40.9354210018921
Ibirapitanga,2912707,BA,Ibirapitanga,5,Ibirapitanga,-14.1650324961225,-39.3744665327401
Ibirapua,2912806,BA,Ibirapuã,5,Ibirapuã,-17.6841971442165,-40.1063094115419
Ibirataia,2912905,BA,Ibirataia,5,Ibirataia,-14.0672690808107,-39.6409188889228
"Algodao Ibirataia ",2912905,BA,Ibirataia,10,Algodão,-14.0672690808107,-39.6409188889228
Ibitiara,2913002,BA,Ibitiara,5,Ibitiara,-12.6455137042392,-42.213294323499
"Mocambo Ibitiara ",2913002,BA,Ibitiara,8,Mocambo,-12.6455137042392,-42.213294323499
"Olhos d Agua do Seco Ibitiara ",2913002,BA,Ibitiara,10,Olhos d'Água do Seco,-12.6455137042392,-42.213294323499
Ibitita,2913101,BA,Ibititá,5,Ibititá,-11.5527707224075,-41.9751521500745
"Canoao Ibitita ",2913101,BA,Ibititá,20,Canoão,-11.5527707224075,-41.9751521500745
"Feira Nova Ibitita ",2913101,BA,Ibititá,30,Feira Nova,-11.5527707224075,-41.9751521500745
Ibotirama,2913200,BA,Ibotirama,5,Ibotirama,-12.1840135690449,-43.2186962649655
"Boa Vista do Lagamar Ibotirama ",2913200,BA,Ibotirama,10,Boa Vista do Lagamar,-12.1840135690449,-43.2186962649655
Ichu,2913309,BA,Ichu,5,Ichu,-11.7552498736675,-39.1887163054619
Igapora,2913408,BA,Igaporã,5,Igaporã,-13.7679764775293,-42.7178798074989
Igrapiuna,2913457,BA,Igrapiúna,5,Igrapiúna,-13.8204024423397,-39.1400807978716
Iguai,2913507,BA,Iguaí,5,Iguaí,-14.7579625255698,-40.0975134505707
"Iguaibi Iguai ",2913507,BA,Iguaí,10,Iguaibi,-14.7579625255698,-40.0975134505707
Ilhéus,2913606,BA,Ilhéus,5,Ilhéus,-14.7933202697252,-39.0431842869426
Inhambupe,2913705,BA,Inhambupe,5,Inhambupe,-11.7891274640932,-38.3540192706032
Ipecaeta,2913804,BA,Ipecaetá,5,Ipecaetá,-12.3141993063471,-39.3060256383634
"Cavunge Ipecaeta ",2913804,BA,Ipecaetá,10,Cavunge,-12.3141993063471,-39.3060256383634
Ipiau,2913903,BA,Ipiaú,5,Ipiaú,-14.1374736712629,-39.7356541802101
Ipira,2914000,BA,Ipirá,5,Ipirá,-27.4097088482285,-51.7708536189115
Bonfim de Ipira Ipira,2914000,BA,Ipirá,15,Bonfim de Ipirá,-27.4097088482285,-51.7708536189115
"Malhador Ipira ",2914000,BA,Ipirá,25,Malhador,-27.4097088482285,-51.7708536189115
Ipupiara,2914109,BA,Ipupiara,5,Ipupiara,-11.8288274008654,-42.6106888538981
"Ibipetum Ipupiara ",2914109,BA,Ipupiara,10,Ibipetum,-11.8288274008654,-42.6106888538981
Irajuba,2914208,BA,Irajuba,5,Irajuba,-13.2566101533511,-40.0838518009128
Iramaia,2914307,BA,Iramaia,5,Iramaia,-13.2936511934142,-40.9695824783476
"Novo acre Iramaia ",2914307,BA,Iramaia,10,Novo acre,-13.2936511934142,-40.9695824783476
Iraquara,2914406,BA,Iraquara,5,Iraquara,-12.2435010164176,-41.6179588573912
"Iraporanga Iraquara ",2914406,BA,Iraquara,10,Iraporanga,-12.2435010164176,-41.6179588573912
Irara,2914505,BA,Irará,5,Irará,-12.0337039631626,-38.7716507783794
Bento Simoes Irara,2914505,BA,Irará,10,Bento Simões,-12.0337039631626,-38.7716507783794
Irece,2914604,BA,Irecê,5,Irecê,-11.3033796242944,-41.8588604758612
"Angical Irece ",2914604,BA,Irecê,25,Angical,-11.3033796242944,-41.8588604758612
"Conquista Irece ",2914604,BA,Irecê,30,Conquista,-11.3033796242944,-41.8588604758612
"Itapicuru Irece ",2914604,BA,Irecê,35,Itapicuru,-11.3033796242944,-41.8588604758612
Itabela,2914653,BA,Itabela,5,Itabela,-16.5758360567514,-39.5532377750796
Itaberaba,2914703,BA,Itaberaba,5,Itaberaba,-12.5322540889787,-40.30699491974
Itabuna,2914802,BA,Itabuna,5,Itabuna,-14.789039548603,-39.2731089520081
Itacare,2914901,BA,Itacaré,5,Itacaré,-14.278249285587,-38.9948415531018
"Taboquinhas Itacare ",2914901,BA,Itacaré,10,Taboquinhas,-14.278249285587,-38.9948415531018
Itaete,2915007,BA,Itaeté,5,Itaeté,-12.9820339945038,-40.9634187749058
Itagi,2915106,BA,Itagi,5,Itagi,-14.1617937177936,-40.0136249931013
Itagiba,2915205,BA,Itagibá,5,Itagibá,-14.286514167771,-39.8485155565573
"Japomirim Itagiba ",2915205,BA,Itagibá,10,Japomirim,-14.286514167771,-39.8485155565573
Itagimirim,2915304,BA,Itagimirim,5,Itagimirim,-16.08814327593,-39.61519181091
Itaguacu da Bahia,2915353,BA,Itaguaçu da Bahia,5,Itaguaçu da Bahia,-11.0087222103694,-42.4011571242595
Itaju do Colônia,2915403,BA,Itaju do Colônia,5,Itaju do Colônia,-15.1401935524042,-39.7247246149297
"Palmira Itaju do Colônia ",2915403,BA,Itaju do Colônia,20,Palmira,-15.1401935524042,-39.7247246149297
Itajuipe,2915502,BA,Itajuípe,5,Itajuípe,-14.6780189897835,-39.3817881541009
Bandeira do Almada Itajuipe,2915502,BA,Itajuípe,10,Bandeira do Almada,-14.6780189897835,-39.3817881541009
Itamaraju,2915601,BA,Itamaraju,5,Itamaraju,-17.0423375996661,-39.5330398845548
Itamari,2915700,BA,Itamari,5,Itamari,-13.774836755857,-39.6763483469467
Itambe,2915809,BA,Itambé,5,Itambé,-15.2480191939772,-40.6240417223752
"Catolezinho Itambe ",2915809,BA,Itambé,10,Catolezinho,-15.2480191939772,-40.6240417223752
"São José do Colônia Itambe ",2915809,BA,Itambé,15,São José do Colônia,-15.2480191939772,-40.6240417223752
Itanagra,2915908,BA,Itanagra,5,Itanagra,-12.268163143855,-38.0381809411938
Itanhém,2916005,BA,Itanhém,5,Itanhém,-17.1663329036881,-40.3270486489757
"Batinga Itanhém ",2916005,BA,Itanhém,10,Batinga,-17.1663329036881,-40.3270486489757
"Ibiraja Itanhém ",2916005,BA,Itanhém,15,Ibirajá,-17.1663329036881,-40.3270486489757
Itaparica,2916104,BA,Itaparica,5,Itaparica,-12.8814890528205,-38.6840303112952
Itape,2916203,BA,Itapé,5,Itapé,-14.894807960836,-39.429962728368
Itapebi,2916302,BA,Itapebi,5,Itapebi,-15.9721666550673,-39.5285413926178
"Caiubi Itapebi ",2916302,BA,Itapebi,10,Caiubi,-15.9721666550673,-39.5285413926178
Itapetinga,2916401,BA,Itapetinga,5,Itapetinga,-15.246167188692,-40.2473809072369
Bandeira do Colônia Itapetinga,2916401,BA,Itapetinga,10,Bandeira do Colônia,-15.246167188692,-40.2473809072369
Itapicuru,2916500,BA,Itapicuru,5,Itapicuru,-11.3109527005757,-38.218612375549
"Sambaiba Itapicuru ",2916500,BA,Itapicuru,10,Sambaíba,-11.3109527005757,-38.218612375549
Itapitanga,2916609,BA,Itapitanga,5,Itapitanga,-14.4211947386928,-39.5663618837119
Itaquara,2916708,BA,Itaquara,5,Itaquara,-13.4464090027676,-39.9382435936366
Itarantim,2916807,BA,Itarantim,5,Itarantim,-15.6578300416217,-40.0615452743889
"Ribeirão do Salto Itarantim ",2916807,BA,Itarantim,10,Ribeirão do Salto,-15.6578300416217,-40.0615452743889
Itatim,2916856,BA,Itatim,5,Itatim,-12.7092465330848,-39.7037746062264
Itirucu,2916906,BA,Itiruçu,5,Itiruçu,-13.5323986079019,-40.1461722976579
Itiuba,2917003,BA,Itiúba,5,Itiúba,-10.6919012256505,-39.8532769742179
Itororo,2917102,BA,Itororó,5,Itororó,-15.1190373140262,-40.0717033442151
"Itati Itororo ",2917102,BA,Itororó,10,Itati,-15.1190373140262,-40.0717033442151
"Rio do Meio Itororo ",2917102,BA,Itororó,15,Rio do Meio,-15.1190373140262,-40.0717033442151
Ituacu,2917201,BA,Ituaçu,5,Ituaçu,-13.807407146168,-41.3109815271264
"Tranqueiras Ituacu ",2917201,BA,Ituaçu,30,Tranqueiras,-13.807407146168,-41.3109815271264
Itubera,2917300,BA,Ituberá,5,Ituberá,-13.7361569056683,-39.149042491857
Iuiu,2917334,BA,Iuiú,5,Iuiú,-14.4121460364229,-43.556402615529
Jaborandi,2917359,BA,Jaborandi,5,Jaborandi,-13.6259340019621,-44.4659699896562
Jacaraci,2917409,BA,Jacaraci,5,Jacaraci,-14.8491905702097,-42.4306087705946
"Irundiara Jacaraci ",2917409,BA,Jacaraci,10,Irundiara,-14.8491905702097,-42.4306087705946
"Paiol Jacaraci ",2917409,BA,Jacaraci,15,Paiol,-14.8491905702097,-42.4306087705946
Jacobina,2917508,BA,Jacobina,5,Jacobina,-11.1850621601419,-40.5130176278701
"Catinga do Moura Jacobina ",2917508,BA,Jacobina,10,Catinga do Moura,-11.1850621601419,-40.5130176278701
"Itaitu Jacobina ",2917508,BA,Jacobina,15,Itaitu,-11.1850621601419,-40.5130176278701
"Itapeipu Jacobina ",2917508,BA,Jacobina,20,Itapeipu,-11.1850621601419,-40.5130176278701
"Junco Jacobina ",2917508,BA,Jacobina,26,Junco,-11.1850621601419,-40.5130176278701
Jaguaquara,2917607,BA,Jaguaquara,5,Jaguaquara,-13.530698630843,-39.9702551831643
"Ipiuna Jaguaquara ",2917607,BA,Jaguaquara,15,Ipiúna,-13.530698630843,-39.9702551831643
Jaguarari,2917706,BA,Jaguarari,5,Jaguarari,-10.2628542593016,-40.1936114661932
"Pilar Jaguarari ",2917706,BA,Jaguarari,8,Pilar,-10.2628542593016,-40.1936114661932
"Juacema Jaguarari ",2917706,BA,Jaguarari,10,Juacema,-10.2628542593016,-40.1936114661932
Jaguaripe,2917805,BA,Jaguaripe,5,Jaguaripe,-13.1150638883823,-38.8914186277088
"Camassandi Jaguaripe ",2917805,BA,Jaguaripe,10,Camassandi,-13.1150638883823,-38.8914186277088
"Cunhangi Jaguaripe ",2917805,BA,Jaguaripe,15,Cunhangi,-13.1150638883823,-38.8914186277088
"Jacuruna Jaguaripe ",2917805,BA,Jaguaripe,20,Jacuruna,-13.1150638883823,-38.8914186277088
"Pirajuia Jaguaripe ",2917805,BA,Jaguaripe,26,Pirajuia,-13.1150638883823,-38.8914186277088
Jandaíra,2917904,BA,Jandaíra,5,Jandaíra,-11.5657484739409,-37.7868684912297
Abadia Jandaíra,2917904,BA,Jandaíra,10,Abadia,-11.5657484739409,-37.7868684912297
"Itanhi Jandaíra ",2917904,BA,Jandaíra,15,Itanhi,-11.5657484739409,-37.7868684912297
"Mangue Seco Jandaíra ",2917904,BA,Jandaíra,20,Mangue Seco,-11.5657484739409,-37.7868684912297
Jequie,2918001,BA,Jequié,5,Jequié,-13.8556640076641,-40.0886073274763
Jeremoabo,2918100,BA,Jeremoabo,5,Jeremoabo,-10.0622424076243,-38.3518191467426
"Canche Jeremoabo ",2918100,BA,Jeremoabo,10,Canché,-10.0622424076243,-38.3518191467426
Jiquirica,2918209,BA,Jiquiriçá,5,Jiquiriçá,-13.2523063492574,-39.5765017781122
Jitauna,2918308,BA,Jitaúna,5,Jitaúna,-14.0174286979097,-39.8896321766671
João Dourado,2918357,BA,João Dourado,5,João Dourado,-11.3464052247312,-41.6599891797839
Juazeiro,2918407,BA,Juazeiro,5,Juazeiro,-9.41071709622786,-40.5035521594434
Jucuruçu,2918456,BA,Jucuruçu,5,Jucuruçu,-16.8445161458114,-40.158812629938
Jussara,2918506,BA,Jussara,5,Jussara,-11.0545549483525,-41.9797319275478
"Queimada Nova Jussara ",2918506,BA,Jussara,7,Queimada Nova,-11.0545549483525,-41.9797319275478
"Recife Jussara ",2918506,BA,Jussara,10,Recife,-11.0545549483525,-41.9797319275478
Jussari,2918555,BA,Jussari,5,Jussari,-15.1904562989287,-39.4949398662896
Jussiape,2918605,BA,Jussiape,5,Jussiape,-13.5129503420972,-41.5901420145899
"Caraguatai Jussiape ",2918605,BA,Jussiape,10,Caraguataí,-13.5129503420972,-41.5901420145899
Lafaiete Coutinho,2918704,BA,Lafaiete Coutinho,5,Lafaiete Coutinho,-13.6529994248073,-40.2106058828047
Lagoa Real,2918753,BA,Lagoa Real,5,Lagoa Real,-14.030028985633,-42.1457118363755
Laje,2918803,BA,Laje,5,Laje,-13.1796486824668,-39.427552152912
"Capão Laje ",2918803,BA,Laje,10,Capão,-13.1796486824668,-39.427552152912
"Engenheiro Pontes Laje ",2918803,BA,Laje,15,Engenheiro Pontes,-13.1796486824668,-39.427552152912
Lajedao,2918902,BA,Lajedão,5,Lajedão,-17.6121309379681,-40.3458465320806
Lajedinho,2919009,BA,Lajedinho,5,Lajedinho,-12.3603741929439,-40.903709970347
Lajedo do Tabocal,2919058,BA,Lajedo do Tabocal,5,Lajedo do Tabocal,-13.4725200035757,-40.2252295031908
Lamarao,2919108,BA,Lamarão,5,Lamarão,-11.7915777403757,-38.8929803339265
Lapao,2919157,BA,Lapão,5,Lapão,-11.3801390539198,-41.8319086533875
Lauro de Freitas,2919207,BA,Lauro de Freitas,5,Lauro de Freitas,-12.8967176089245,-38.3234616102514
Lencois,2919306,BA,Lençóis,5,Lençóis,-12.5640631156412,-41.3940311361177
"Afranio Peixoto Lencois ",2919306,BA,Lençóis,10,Afrânio Peixoto,-12.5640631156412,-41.3940311361177
"Coronel Octaviano Alves Lencois ",2919306,BA,Lençóis,15,Coronel Octaviano Alves,-12.5640631156412,-41.3940311361177
Licinio de Almeida,2919405,BA,Licínio de Almeida,5,Licínio de Almeida,-14.6758660767898,-42.5026836358801
"Tauape Licinio de Almeida ",2919405,BA,Licínio de Almeida,10,Tauape,-14.6758660767898,-42.5026836358801
Livramento de Nossa Senhora,2919504,BA,Livramento de Nossa Senhora,5,Livramento de Nossa Senhora,-13.6495009052305,-41.8403872818085
"Iguatemi Livramento de Nossa Senhora ",2919504,BA,Livramento de Nossa Senhora,10,Iguatemi,-13.6495009052305,-41.8403872818085
"Itanage Livramento de Nossa Senhora ",2919504,BA,Livramento de Nossa Senhora,15,Itanagé,-13.6495009052305,-41.8403872818085
"São Timoteo Livramento de Nossa Senhora ",2919504,BA,Livramento de Nossa Senhora,20,São Timóteo,-13.6495009052305,-41.8403872818085
Luís Eduardo Magalhães,2919553,BA,Luís Eduardo Magalhães,5,Luís Eduardo Magalhães,-12.0783722561969,-45.8004644064563
Macajuba,2919603,BA,Macajuba,5,Macajuba,-12.1413926805595,-40.3651796434378
"Nova Cruz Macajuba ",2919603,BA,Macajuba,21,Nova Cruz,-12.1413926805595,-40.3651796434378
"Santa Luzia Macajuba ",2919603,BA,Macajuba,26,Santa Luzia,-12.1413926805595,-40.3651796434378
Macarani,2919702,BA,Macarani,5,Macarani,-15.5673161525245,-40.4220441103433
Macaubas,2919801,BA,Macaúbas,5,Macaúbas,-13.0236716698562,-42.6946657468879
"Canatiba Macaubas ",2919801,BA,Macaúbas,10,Canatiba,-13.0236716698562,-42.6946657468879
"Lagoa Clara Macaubas ",2919801,BA,Macaúbas,15,Lagoa Clara,-13.0236716698562,-42.6946657468879
Macurure,2919900,BA,Macururé,5,Macururé,-9.1747059108515,-39.0595150265112
Madre de Deus,2919926,BA,Madre de Deus,5,Madre de Deus,-12.7403126545334,-38.6027685669092
Maetinga,2919959,BA,Maetinga,5,Maetinga,-14.6612663590578,-41.4836566953217
Maiquinique,2920007,BA,Maiquinique,5,Maiquinique,-15.6197717025776,-40.2605151185559
Mairi,2920106,BA,Mairi,5,Mairi,-11.7111106230505,-40.1497825191557
"Angico Mairi ",2920106,BA,Mairi,10,Angico,-11.7111106230505,-40.1497825191557
Malhada,2920205,BA,Malhada,5,Malhada,-14.3403832840842,-43.7716203176702
"Canabrava Malhada ",2920205,BA,Malhada,10,Canabrava,-14.3403832840842,-43.7716203176702
"Parateca Malhada ",2920205,BA,Malhada,15,Parateca,-14.3403832840842,-43.7716203176702
Malhada de Pedras,2920304,BA,Malhada de Pedras,5,Malhada de Pedras,-14.3779454038321,-41.8786983400613
Manoel Vitorino,2920403,BA,Manoel Vitorino,5,Manoel Vitorino,-14.1459322060189,-40.2420162476621
"Catingal Manoel Vitorino ",2920403,BA,Manoel Vitorino,10,Catingal,-14.1459322060189,-40.2420162476621
Mansidao,2920452,BA,Mansidão,5,Mansidão,-10.715828960029,-44.0364854095632
"Aroeiras Mansidao ",2920452,BA,Mansidão,10,Aroeiras,-10.715828960029,-44.0364854095632
Maracás,2920502,BA,Maracás,5,Maracás,-13.4376744923124,-40.4312875473779
Maragogipe,2920601,BA,Maragogipe,5,Maragogipe,-12.7751199192363,-38.9188814371553
"Coqueiros Maragogipe ",2920601,BA,Maragogipe,10,Coqueiros,-12.7751199192363,-38.9188814371553
"Guai Maragogipe ",2920601,BA,Maragogipe,15,Guaí,-12.7751199192363,-38.9188814371553
"Guapira Maragogipe ",2920601,BA,Maragogipe,20,Guapira,-12.7751199192363,-38.9188814371553
"Nage Maragogipe ",2920601,BA,Maragogipe,25,Nagé,-12.7751199192363,-38.9188814371553
"São Roque do Paraguacu Maragogipe ",2920601,BA,Maragogipe,30,São Roque do Paraguaçu,-12.7751199192363,-38.9188814371553
Marau,2920700,BA,Maraú,5,Maraú,-28.4484539272764,-52.1967769340001
"Ibiacu Marau ",2920700,BA,Maraú,10,Ibiaçu,-28.4484539272764,-52.1967769340001
"Piabanha Marau ",2920700,BA,Maraú,15,Piabanha,-28.4484539272764,-52.1967769340001
Marcionilio Souza,2920809,BA,Marcionílio Souza,5,Marcionílio Souza,-13.0035103723106,-40.5345299893202
"Juraci Marcionilio Souza ",2920809,BA,Marcionílio Souza,10,Juraci,-13.0035103723106,-40.5345299893202
Mascote,2920908,BA,Mascote,5,Mascote,-15.5659880327486,-39.3024004527217
"Pimenta Mascote ",2920908,BA,Mascote,11,Pimenta,-15.5659880327486,-39.3024004527217
"São João do Paraiso Mascote ",2920908,BA,Mascote,16,São João do Paraíso,-15.5659880327486,-39.3024004527217
"Teixeira do Progresso Mascote ",2920908,BA,Mascote,25,Teixeira do Progresso,-15.5659880327486,-39.3024004527217
Mata de São João,2921005,BA,Mata de São João,5,Mata de São João,-12.5299707907046,-38.2972993248088
"Acu da Torre Mata de São João ",2921005,BA,Mata de São João,10,Açu da Torre,-12.5299707907046,-38.2972993248088
Amado Bahia Mata de São João,2921005,BA,Mata de São João,15,Amado Bahia,-12.5299707907046,-38.2972993248088
Matina,2921054,BA,Matina,5,Matina,-13.9126360110704,-42.8429324443126
Medeiros Neto,2921104,BA,Medeiros Neto,5,Medeiros Neto,-17.370409482092,-40.220174208006
"Itupeva Medeiros Neto ",2921104,BA,Medeiros Neto,10,Itupeva,-17.370409482092,-40.220174208006
"Nova Lidice Medeiros Neto ",2921104,BA,Medeiros Neto,15,Nova Lídice,-17.370409482092,-40.220174208006
Miguel 2921203,,Miguel 05,Miguel -11.4283442062266,-40.5960696127369,,,
"Itapura Miguel Calmon ",2921203,BA,Miguel 10,Itapura,-11.4283442062266,-40.5960696127369,
"Tapiranga Miguel Calmon ",2921203,BA,Miguel 15,Tapiranga,-11.4283442062266,-40.5960696127369,
Milagres,2921302,BA,Milagres,5,Milagres,-12.8705749151395,-39.8591271004733
"Tartaruga Milagres ",2921302,BA,Milagres,10,Tartaruga,-12.8705749151395,-39.8591271004733
Mirangaba,2921401,BA,Mirangaba,5,Mirangaba,-10.9561172849444,-40.5747927022127
"Nuguacu Mirangaba ",2921401,BA,Mirangaba,10,Nuguaçu,-10.9561172849444,-40.5747927022127
"Canabrava Mirangaba ",2921401,BA,Mirangaba,13,Canabrava,-10.9561172849444,-40.5747927022127
"Taquarandi Mirangaba ",2921401,BA,Mirangaba,15,Taquarandi,-10.9561172849444,-40.5747927022127
Mirante,2921450,BA,Mirante,5,Mirante,-14.2398179211321,-40.7735665979009
Monte Santo,2921500,BA,Monte Santo,5,Monte Santo,-10.440157740658,-39.3327059520687
Morpara,2921609,BA,Morpará,5,Morpará,-11.5580425446035,-43.2779134070032
"Quixaba Morpara ",2921609,BA,Morpará,10,Quixaba,-11.5580425446035,-43.2779134070032
Morro do Chapéu,2921708,BA,Morro do Chapéu,5,Morro do Chapéu,-11.5501261105049,-41.1590965077636
"Camirim Morro do Chapéu ",2921708,BA,Morro do Chapéu,10,Camirim,-11.5501261105049,-41.1590965077636
"Dias Coelho Morro do Chapéu ",2921708,BA,Morro do Chapéu,15,Dias Coelho,-11.5501261105049,-41.1590965077636
"Duas Barras do Morro Morro do Chapéu ",2921708,BA,Morro do Chapéu,20,Duas Barras do Morro,-11.5501261105049,-41.1590965077636
"Ico Morro do Chapéu ",2921708,BA,Morro do Chapéu,22,Icó,-11.5501261105049,-41.1590965077636
"Tamboril Morro do Chapéu ",2921708,BA,Morro do Chapéu,24,Tamboril,-11.5501261105049,-41.1590965077636
"Ventura Morro do Chapéu ",2921708,BA,Morro do Chapéu,30,Ventura,-11.5501261105049,-41.1590965077636
Mortugaba,2921807,BA,Mortugaba,5,Mortugaba,-15.0164072903658,-42.3804489223231
Mucugê,2921906,BA,Mucugê,5,Mucugê,-13.0038942044712,-41.3732130118668
"Guine Mucugê ",2921906,BA,Mucugê,10,Guiné,-13.0038942044712,-41.3732130118668
"João Correia Mucugê ",2921906,BA,Mucugê,15,João Correia,-13.0038942044712,-41.3732130118668
Mucuri,2922003,BA,Mucuri,5,Mucuri,-18.0885397388763,-39.5475458898298
"Ibiranhem Mucuri ",2922003,BA,Mucuri,10,Ibiranhém,-18.0885397388763,-39.5475458898298
"Itabata Mucuri ",2922003,BA,Mucuri,12,Itabatã,-18.0885397388763,-39.5475458898298
"Taquarinha Mucuri ",2922003,BA,Mucuri,15,Taquarinha,-18.0885397388763,-39.5475458898298
Mulungu do Morro,2922052,BA,Mulungu do Morro,5,Mulungu do Morro,-11.967220021102,-41.6438000095819
"Canudos Mulungu do Morro ",2922052,BA,Mulungu do Morro,10,Canudos,-11.967220021102,-41.6438000095819
"Varzea do Cerco Mulungu do Morro ",2922052,BA,Mulungu do Morro,15,Várzea do Cerco,-11.967220021102,-41.6438000095819
Mundo Novo,2922102,BA,Mundo Novo,5,Mundo Novo,-11.8647227486239,-40.4714981500981
Alto Bonito Mundo Novo,2922102,BA,Mundo Novo,10,Alto Bonito,-11.8647227486239,-40.4714981500981
"Ibiapora Mundo Novo ",2922102,BA,Mundo Novo,15,Ibiaporã,-11.8647227486239,-40.4714981500981
"Indai Mundo Novo ",2922102,BA,Mundo Novo,20,Indaí,-11.8647227486239,-40.4714981500981
Muniz Ferreira,2922201,BA,Muniz Ferreira,5,Muniz Ferreira,-12.9973037019252,-39.1129817012099
"Onha Muniz Ferreira ",2922201,BA,Muniz Ferreira,10,Onha,-12.9973037019252,-39.1129817012099
Muquem de São Francisco,2922250,BA,Muquém de São Francisco,5,Muquém de São Francisco,-12.06826126493,-43.551859915059
Muritiba,2922300,BA,Muritiba,5,Muritiba,-12.6233724415369,-38.9886888174458
"Itapora Muritiba ",2922300,BA,Muritiba,20,Itaporã,-12.6233724415369,-38.9886888174458
Mutuipe,2922409,BA,Mutuípe,5,Mutuípe,-13.2293733236817,-39.5041638520156
Nazare,2922508,BA,Nazaré,5,Nazaré,-13.0351482201812,-39.0106225828794
Nilo Pecanha,2922607,BA,Nilo Peçanha,5,Nilo Peçanha,-13.6044944204415,-39.1129855090732
Nordestina,2922656,BA,Nordestina,5,Nordestina,-10.8320535248462,-39.4291308507325
Nova Canaa,2922706,BA,Nova Canaã,5,Nova Canaã,-14.7935980876719,-40.145174652014
"Itajai Nova Canaa ",2922706,BA,Nova Canaã,10,Itajaí,-14.7935980876719,-40.145174652014
Nova Fátima,2922730,BA,Nova Fátima,5,Nova Fátima,-23.4323585708965,-50.5623142175567
Nova Ibia,2922755,BA,Nova Ibiá,5,Nova Ibiá,-13.8099073660338,-39.6256860494916
Nova Itarana,2922805,BA,Nova Itarana,5,Nova Itarana,-13.0330498856442,-40.0692497332534
Nova Redencao,2922854,BA,Nova Redenção,5,Nova Redenção,-12.8188675675112,-41.0688595103445
Nova Soure,2922904,BA,Nova Soure,5,Nova Soure,-11.2380081972295,-38.4846139269682
Nova Vicosa,2923001,BA,Nova Viçosa,5,Nova Viçosa,-17.8933917821788,-39.3720115380737
"Argolo Nova Vicosa ",2923001,BA,Nova Viçosa,10,Argolo,-17.8933917821788,-39.3720115380737
"Helvecia Nova Vicosa ",2923001,BA,Nova Viçosa,15,Helvécia,-17.8933917821788,-39.3720115380737
"Posto da Mata Nova Vicosa ",2923001,BA,Nova Viçosa,25,Posto da Mata,-17.8933917821788,-39.3720115380737
Novo Horizonte,2923035,BA,Novo Horizonte,5,Novo Horizonte,-12.8019973640359,-42.167788448517
"Brejo Luiza de Brito Novo Horizonte ",2923035,BA,Novo Horizonte,10,Brejo Luiza de Brito,-12.8019973640359,-42.167788448517
"Remédios Novo Horizonte ",2923035,BA,Novo Horizonte,15,Remédios,-12.8019973640359,-42.167788448517
Novo Triunfo,2923050,BA,Novo Triunfo,5,Novo Triunfo,-10.342018230888,-38.4155813480126
Olindina,2923100,BA,Olindina,5,Olindina,-11.3583061402444,-38.3310801960897
Oliveira dos Brejinhos,2923209,BA,Oliveira dos Brejinhos,5,Oliveira dos Brejinhos,-12.3205889500424,-42.897019768671
Bom Sossego Oliveira dos Brejinhos,2923209,BA,Oliveira dos Brejinhos,10,Bom Sossego,-12.3205889500424,-42.897019768671
"Ipucaba Oliveira dos Brejinhos ",2923209,BA,Oliveira dos Brejinhos,15,Ipuçaba,-12.3205889500424,-42.897019768671
Ouricangas,2923308,BA,Ouriçangas,5,Ouriçangas,-12.0068519179474,-38.6284167702128
Ourolandia,2923357,BA,Ourolândia,5,Ourolândia,-10.9646176504278,-41.0818117290063
Palmas de Monte Alto,2923407,BA,Palmas de Monte Alto,5,Palmas de Monte Alto,-14.257350994356,-43.1705121315164
"Espraiado Palmas de Monte Alto ",2923407,BA,Palmas de Monte Alto,15,Espraiado,-14.257350994356,-43.1705121315164
"Pinga Fogo Palmas de Monte Alto ",2923407,BA,Palmas de Monte Alto,20,Pinga Fogo,-14.257350994356,-43.1705121315164
"Rancho das Maes Palmas de Monte Alto ",2923407,BA,Palmas de Monte Alto,25,Rancho das Mães,-14.257350994356,-43.1705121315164
Palmeiras,2923506,BA,Palmeiras,5,Palmeiras,-12.5100711046145,-41.5773369327133
"Caete Acu Palmeiras ",2923506,BA,Palmeiras,10,Caeté-Açu,-12.5100711046145,-41.5773369327133
Paramirim,2923605,BA,Paramirim,5,Paramirim,-13.4424266571553,-42.240648777677
"Canabravinha Paramirim ",2923605,BA,Paramirim,10,Canabravinha,-13.4424266571553,-42.240648777677
Paratinga,2923704,BA,Paratinga,5,Paratinga,-12.6906971249291,-43.1820250755777
"Aguas do Paulista Paratinga ",2923704,BA,Paratinga,10,Águas do Paulista,-12.6906971249291,-43.1820250755777
Paripiranga,2923803,BA,Paripiranga,5,Paripiranga,-10.6759923133197,-37.8704477007211
"Conceição de Campinas Paripiranga ",2923803,BA,Paripiranga,10,Conceição de Campinas,-10.6759923133197,-37.8704477007211
Pau Brasil,2923902,BA,Pau Brasil,5,Pau Brasil,-15.4636188168583,-39.6487820361139
Paulo Afonso,2924009,BA,Paulo Afonso,5,Paulo Afonso,-9.40333169737823,-38.2183289682262
Pé de Serra,2924058,BA,Pé de Serra,5,Pé de Serra,-11.8311793085998,-39.6094253290429
Pedrao,2924108,BA,Pedrão,5,Pedrão,-12.1435872038139,-38.6490014216411
Pedro Alexandre,2924207,BA,Pedro Alexandre,5,Pedro Alexandre,-10.010071580454,-37.8992615844143
Piata,2924306,BA,Piatã,5,Piatã,-13.1644568682516,-41.7706230393181
"Cabralia Piata ",2924306,BA,Piatã,10,Cabrália,-13.1644568682516,-41.7706230393181
"Inubia Piata ",2924306,BA,Piatã,15,Inúbia,-13.1644568682516,-41.7706230393181
Pilao Arcado,2924405,BA,Pilão Arcado,5,Pilão Arcado,-9.99777105599991,-42.4847567624654
Baluarte Pilao Arcado,2924405,BA,Pilão Arcado,10,Baluarte,-9.99777105599991,-42.4847567624654
"Brejo da Serra Pilao Arcado ",2924405,BA,Pilão Arcado,15,Brejo da Serra,-9.99777105599991,-42.4847567624654
"Saldanha Pilao Arcado ",2924405,BA,Pilão Arcado,20,Saldanha,-9.99777105599991,-42.4847567624654
Pindai,2924504,BA,Pindaí,5,Pindaí,-14.4899875404939,-42.6870333191128
"Guirapa Pindai ",2924504,BA,Pindaí,10,Guirapá,-14.4899875404939,-42.6870333191128
Pindobacu,2924603,BA,Pindobaçu,5,Pindobaçu,-10.7342066123577,-40.357159193636
Bananeiras Pindobacu,2924603,BA,Pindobaçu,10,Bananeiras,-10.7342066123577,-40.357159193636
"Carnaiba de Baixo Pindobacu ",2924603,BA,Pindobaçu,15,Carnaíba de Baixo,-10.7342066123577,-40.357159193636
"Varzea Grande Pindobacu ",2924603,BA,Pindobaçu,25,Várzea Grande,-10.7342066123577,-40.357159193636
Pintadas,2924652,BA,Pintadas,5,Pintadas,-11.8080365090652,-39.9082386319335
Pirai do Norte,2924678,BA,Piraí do Norte,5,Piraí do Norte,-13.7612250392524,-39.3745221879491
Piripa,2924702,BA,Piripá,5,Piripá,-14.9468709101065,-41.7248658272753
Piritiba,2924801,BA,Piritiba,5,Piritiba,-11.7372340017775,-40.5513277059088
"Franca Piritiba ",2924801,BA,Piritiba,10,França,-11.7372340017775,-40.5513277059088
"Largo Piritiba ",2924801,BA,Piritiba,15,Largo,-11.7372340017775,-40.5513277059088
"Porto Feliz Piritiba ",2924801,BA,Piritiba,25,Porto Feliz,-11.7372340017775,-40.5513277059088
Planaltino,2924900,BA,Planaltino,5,Planaltino,-13.2566087533798,-40.3683973567155
"Ibitiguira Planaltino ",2924900,BA,Planaltino,10,Ibitiguira,-13.2566087533798,-40.3683973567155
"Nova Itaipe Planaltino ",2924900,BA,Planaltino,15,Nova Itaípe,-13.2566087533798,-40.3683973567155
Planalto,2925006,BA,Planalto,5,Planalto,-14.6701699702495,-40.4846403764104
"Lucaia Planalto ",2925006,BA,Planalto,10,Lucaia,-14.6701699702495,-40.4846403764104
Pocoes,2925105,BA,Poções,5,Poções,-14.5223245425648,-40.3651272938438
Pojuca,2925204,BA,Pojuca,5,Pojuca,-12.4292631348677,-38.3271668771048
"Miranga Pojuca ",2925204,BA,Pojuca,10,Miranga,-12.4292631348677,-38.3271668771048
Ponto Novo,2925253,BA,Ponto Novo,5,Ponto Novo,-10.8671478313026,-40.135392845065
Porto Seguro,2925303,BA,Porto Seguro,5,Porto Seguro,-16.4490561793643,-39.0621135238902
"Arraial D Ajuda Porto Seguro ",2925303,BA,Porto Seguro,7,Arraial D'Ajuda,-16.4490561793643,-39.0621135238902
"Caraiva Porto Seguro ",2925303,BA,Porto Seguro,10,Caraiva,-16.4490561793643,-39.0621135238902
"Vale Verde Porto Seguro ",2925303,BA,Porto Seguro,15,Vale Verde,-16.4490561793643,-39.0621135238902
"Trancoso Porto Seguro ",2925303,BA,Porto Seguro,20,Trancoso,-16.4490561793643,-39.0621135238902
Potiragua,2925402,BA,Potiraguá,5,Potiraguá,-15.5924563116907,-39.8756600705601
"Gurupa Mirim Potiragua ",2925402,BA,Potiraguá,10,Gurupá Mirim,-15.5924563116907,-39.8756600705601
Prado,2925501,BA,Prado,5,Prado,-17.3295639893846,-39.229238421169
"Cumuruxatiba Prado ",2925501,BA,Prado,10,Cumuruxatiba,-17.3295639893846,-39.229238421169
Presidente Dutra,2925600,BA,Presidente Dutra,5,Presidente Dutra,-11.296504066349,-41.990930902445
"Campo Formoso Presidente Dutra ",2925600,BA,Presidente Dutra,10,Campo Formoso,-11.296504066349,-41.990930902445
Presidente Janio Quadros,2925709,BA,Presidente Jânio Quadros,5,Presidente Jânio Quadros,-14.685395366954,-41.6824426344039
Presidente Tancredo Neves,2925758,BA,Presidente Tancredo Neves,5,Presidente Tancredo Neves,-13.4708417736022,-39.4240598299107
Queimadas,2925808,BA,Queimadas,5,Queimadas,-10.9763905291559,-39.6264068266007
"Coronel João Borges Queimadas ",2925808,BA,Queimadas,8,Coronel João Borges,-10.9763905291559,-39.6264068266007
Quijingue,2925907,BA,Quijingue,5,Quijingue,-10.7516723300366,-39.2066092540489
"Algodoes Quijingue ",2925907,BA,Quijingue,10,Algodões,-10.7516723300366,-39.2066092540489
Quixabeira,2925931,BA,Quixabeira,5,Quixabeira,-11.4086852033198,-40.1214965949346
Rafael Jambeiro,2925956,BA,Rafael Jambeiro,5,Rafael Jambeiro,-12.4074173544739,-39.5006356828925
"Argoim Rafael Jambeiro ",2925956,BA,Rafael Jambeiro,10,Argoim,-12.4074173544739,-39.5006356828925
"Cajueiro Rafael Jambeiro ",2925956,BA,Rafael Jambeiro,15,Cajueiro,-12.4074173544739,-39.5006356828925
"Paraguassu Rafael Jambeiro ",2925956,BA,Rafael Jambeiro,25,Paraguassú,-12.4074173544739,-39.5006356828925
Remanso,2926004,BA,Remanso,5,Remanso,-9.62390678921074,-42.0796675416606
"Pocos Remanso ",2926004,BA,Remanso,10,Poços,-9.62390678921074,-42.0796675416606
Retirolandia,2926103,BA,Retirolândia,5,Retirolândia,-11.4896669831527,-39.4241777923454
Riachao das Neves,2926202,BA,Riachão das Neves,5,Riachão das Neves,-11.7462475299556,-44.9164697719097
"Caripare Riachao das Neves ",2926202,BA,Riachão das Neves,10,Cariparé,-11.7462475299556,-44.9164697719097
"São José do Rio Grande Riachao das Neves ",2926202,BA,Riachão das Neves,15,São José do Rio Grande,-11.7462475299556,-44.9164697719097
Riachao do Jacuipe,2926301,BA,Riachão do Jacuípe,5,Riachão do Jacuípe,-11.8059790259237,-39.3830354938567
"Barreiros Riachao do Jacuipe ",2926301,BA,Riachão do Jacuípe,7,Barreiros,-11.8059790259237,-39.3830354938567
Riacho de Santana,2926400,BA,Riacho de Santana,5,Riacho de Santana,-13.6065881421409,-42.9383471199804
Botuquara Riacho de Santana,2926400,BA,Riacho de Santana,10,Botuquara,-13.6065881421409,-42.9383471199804
Ribeira do Amparo,2926509,BA,Ribeira do Amparo,5,Ribeira do Amparo,-11.0391582800742,-38.4305538667121
Ribeira do Pombal,2926608,BA,Ribeira do Pombal,5,Ribeira do Pombal,-10.8362780747687,-38.5360987874333
Ribeirão do Largo,2926657,BA,Ribeirão do Largo,5,Ribeirão do Largo,-15.4640596335135,-40.7438597619248
"Nova Brasília Ribeirão do Largo ",2926657,BA,Ribeirão do Largo,10,Nova Brasília,-15.4640596335135,-40.7438597619248
Rio de Contas,2926707,BA,Rio de Contas,5,Rio de Contas,-13.5886077869907,-41.8187905563617
Arapiranga Rio de Contas,2926707,BA,Rio de Contas,10,Arapiranga,-13.5886077869907,-41.8187905563617
"Marcolino Moura Rio de Contas ",2926707,BA,Rio de Contas,15,Marcolino Moura,-13.5886077869907,-41.8187905563617
Rio do Antônio,2926806,BA,Rio do Antônio,5,Rio do Antônio,-14.4085096465099,-42.0750553350102
"Ibitira Rio do Antônio ",2926806,BA,Rio do Antônio,10,Ibitira,-14.4085096465099,-42.0750553350102
Rio do Pires,2926905,BA,Rio do Pires,5,Rio do Pires,-13.1186631386997,-42.2878777528384
"Ibiajara Rio do Pires ",2926905,BA,Rio do Pires,10,Ibiajara,-13.1186631386997,-42.2878777528384
Rio Real,2927002,BA,Rio Real,5,Rio Real,-11.4849354254303,-37.9335777751436
Rodelas,2927101,BA,Rodelas,5,Rodelas,-8.84499653356944,-38.7723090006586
Ruy Barbosa,2927200,BA,Ruy Barbosa,5,Ruy Barbosa,-12.2893169587982,-40.5003712305803
"Morro das Flores Ruy Barbosa ",2927200,BA,Ruy Barbosa,10,Morro das Flores,-12.2893169587982,-40.5003712305803
"Tapiraipe Ruy Barbosa ",2927200,BA,Ruy Barbosa,15,Tapiraípe,-12.2893169587982,-40.5003712305803
Salinas da Margarida,2927309,BA,Salinas da Margarida,5,Salinas da Margarida,-12.877997054567,-38.757943950869
Salvador,2927408,BA,Salvador,5,Salvador,1058,
Santa Barbara,2927507,BA,Santa Bárbara,5,Santa Bárbara,-11.9569028341388,-38.9661390064385
Santa Brigida,2927606,BA,Santa Brígida,5,Santa Brígida,-9.73189095954201,-38.1278183662894
Santa Cruz Cabralia,2927705,BA,Santa Cruz Cabrália,5,Santa Cruz Cabrália,-16.3380965838173,-39.0131825840709
Santa Cruz da Vitória,2927804,BA,Santa Cruz da Vitória,5,Santa Cruz da Vitória,-14.9600783107079,-39.8118359700429
Santa Ines,2927903,BA,Santa Inês,5,Santa Inês,-13.298687223335,-39.8276053254776
Santa Luzia,2928059,BA,Santa Luzia,5,Santa Luzia,-19.7676168525221,-43.8500072606321
Santa Maria da Vitória,2928109,BA,Santa Maria da Vitória,5,Santa Maria da Vitória,-13.3935452501399,-44.1983088657849
"Acudina Santa Maria da Vitória ",2928109,BA,Santa Maria da Vitória,10,Açudina,-13.3935452501399,-44.1983088657849
"Inhaumas Santa Maria da Vitória ",2928109,BA,Santa Maria da Vitória,15,Inhaúmas,-13.3935452501399,-44.1983088657849
Santa Rita de Cassia,2928406,BA,Santa Rita de Cássia,5,Santa Rita de Cássia,-11.0080450698517,-44.5190497202788
"Malhada Grande Santa Rita de Cassia ",2928406,BA,Santa Rita de Cássia,15,Malhada Grande,-11.0080450698517,-44.5190497202788
Santa Teresinha,2928505,BA,Santa Teresinha,5,Santa Teresinha,-12.7728517712321,-39.5211400561744
Santaluz,2928000,BA,Santaluz,5,Santaluz,-11.2533600344586,-39.3773777962667
"Pereira Santaluz ",2928000,BA,Santaluz,20,Pereira,-11.2533600344586,-39.3773777962667
Santana,2928208,BA,Santana,5,Santana,-0.0383734790956603,-51.1728464650687
"Porto Novo Santana ",2928208,BA,Santana,10,Porto Novo,-0.0383734790956603,-51.1728464650687
Santanopolis,2928307,BA,Santanópolis,5,Santanópolis,-12.0284068880334,-38.8671618077053
"Boa Espera Santanopolis ",2928307,BA,Santanópolis,10,Boa Espera,-12.0284068880334,-38.8671618077053
Santo Amaro,2928604,BA,Santo Amaro,5,Santo Amaro,-12.5491401086618,-38.7090314624696
"Acupe Santo Amaro ",2928604,BA,Santo Amaro,10,Acupe,-12.5491401086618,-38.7090314624696
"Campinhos Santo Amaro ",2928604,BA,Santo Amaro,15,Campinhos,-12.5491401086618,-38.7090314624696
Santo Antônio de Jesus,2928703,BA,Santo Antônio de Jesus,5,Santo Antônio de Jesus,-12.9680077697186,-39.2611312580459
Santo Estevao,2928802,BA,Santo Estêvão,5,Santo Estêvão,-12.4288932288611,-39.2531902035138
São Desiderio,2928901,BA,São Desidério,5,São Desidério,-12.3608954905377,-44.9740962396215
"Sítio Grande São Desiderio ",2928901,BA,São Desidério,10,Sítio Grande,-12.3608954905377,-44.9740962396215
São Domingos,2928950,BA,São Domingos,5,São Domingos,-11.4634661341857,-39.5262647672412
"Santo Antônio São Domingos ",2928950,BA,São Domingos,25,Santo Antônio,-11.4634661341857,-39.5262647672412
São Felipe,2929107,BA,São Felipe,5,São Felipe,-12.8450782150251,-39.0840148984065
"Caraipe São Felipe ",2929107,BA,São Felipe,10,Caraípe,-12.8450782150251,-39.0840148984065
São Felix,2929008,BA,São Félix,5,São Félix,-12.6057132519818,-38.9687185313515
"Outeiro Redondo São Felix ",2929008,BA,São Félix,10,Outeiro Redondo,-12.6057132519818,-38.9687185313515
São Felix do Coribe,2929057,BA,São Félix do Coribe,5,São Félix do Coribe,-13.4042182497929,-44.1968725574679
São Francisco do Conde,2929206,BA,São Francisco do Conde,5,São Francisco do Conde,-12.6299828044039,-38.6757980532931
"Mataripe São Francisco do Conde ",2929206,BA,São Francisco do Conde,10,Mataripe,-12.6299828044039,-38.6757980532931
"Monte Reconcavo São Francisco do Conde ",2929206,BA,São Francisco do Conde,15,Monte Recôncavo,-12.6299828044039,-38.6757980532931
São Gabriel,2929255,BA,São Gabriel,5,São Gabriel,-11.2267073342793,-41.8742692011285
"Gameleira do Jacare São Gabriel ",2929255,BA,São Gabriel,15,Gameleira do Jacaré,-11.2267073342793,-41.8742692011285
São Goncalo dos Campos,2929305,BA,São Gonçalo dos Campos,5,São Gonçalo dos Campos,-12.4303098042388,-38.949772430601
"Afligidos São Goncalo dos Campos ",2929305,BA,São Gonçalo dos Campos,10,Afligidos,-12.4303098042388,-38.949772430601
"Sergi São Goncalo dos Campos ",2929305,BA,São Gonçalo dos Campos,15,Sergi,-12.4303098042388,-38.949772430601
São José da Vitória,2929354,BA,São José da Vitória,5,São José da Vitória,-15.078178211378,-39.338920502937
São José do Jacuipe,2929370,BA,São José do Jacuípe,5,São José do Jacuípe,-11.505326093792,-40.0236558829144
"Itatiaia do Alto Bonito São José do Jacuipe ",2929370,BA,São José do Jacuípe,15,Itatiaia do Alto Bonito,-11.505326093792,-40.0236558829144
São Miguel das Matas,2929404,BA,São Miguel das Matas,5,São Miguel das Matas,-13.0517330820998,-39.4557804260308
São Sebastião do Passe,2929503,BA,São Sebastião do Passé,5,São Sebastião do Passé,-12.512724642985,-38.495309845374
"Maracangalha São Sebastião do Passe ",2929503,BA,São Sebastião do Passé,10,Maracangalha,-12.512724642985,-38.495309845374
"Jacuipe São Sebastião do Passe ",2929503,BA,São Sebastião do Passé,15,Jacuípe,-12.512724642985,-38.495309845374
"Lamarao do Passe São Sebastião do Passe ",2929503,BA,São Sebastião do Passé,20,Lamarão do Passé,-12.512724642985,-38.495309845374
Sapeacu,2929602,BA,Sapeaçu,5,Sapeaçu,-12.7351614750528,-39.1948084366246
Baixa do Palmeira Sapeacu,2929602,BA,Sapeaçu,10,Baixa do Palmeira,-12.7351614750528,-39.1948084366246
Satiro Dias,2929701,BA,Sátiro Dias,5,Sátiro Dias,-11.6008090454152,-38.5913537821245
Saubara,2929750,BA,Saubara,5,Saubara,-12.7369036248191,-38.7706068300048
Bom Jesus dos Pobres Saubara,2929750,BA,Saubara,10,Bom Jesus dos Pobres,-12.7369036248191,-38.7706068300048
"Cabucu Saubara ",2929750,BA,Saubara,15,Cabuçu,-12.7369036248191,-38.7706068300048
Saude,2929800,BA,Saúde,5,Saúde,-10.9411051662096,-40.4185507431154
Seabra,2929909,BA,Seabra,5,Seabra,-12.4187631865162,-41.7682012410905
Baraunas Seabra,2929909,BA,Seabra,10,Baraúnas,-12.4187631865162,-41.7682012410905
"Varzea do Caldas Seabra ",2929909,BA,Seabra,15,Várzea do Caldas,-12.4187631865162,-41.7682012410905
Sebastião Laranjeiras,2930006,BA,Sebastião Laranjeiras,5,Sebastião Laranjeiras,-14.5748223923478,-42.9441131530547
"Mandiroba Sebastião Laranjeiras ",2930006,BA,Sebastião Laranjeiras,10,Mandiroba,-14.5748223923478,-42.9441131530547
Senhor do Bonfim,2930105,BA,Senhor do Bonfim,5,Senhor do Bonfim,-10.4567714931968,-40.1899845399956
"Carrapichel Senhor do Bonfim ",2930105,BA,Senhor do Bonfim,15,Carrapichel,-10.4567714931968,-40.1899845399956
"Igara Senhor do Bonfim ",2930105,BA,Senhor do Bonfim,20,Igara,-10.4567714931968,-40.1899845399956
"Tijuacu Senhor do Bonfim ",2930105,BA,Senhor do Bonfim,25,Tijuaçu,-10.4567714931968,-40.1899845399956
Sento Se,2930204,BA,Sento Sé,5,Sento Sé,-9.74037980462474,-41.8909969156275
Amaniu Sento Se,2930204,BA,Sento Sé,10,Amaniú,-9.74037980462474,-41.8909969156275
Americo Alves Sento Se,2930204,BA,Sento Sé,15,Américo Alves,-9.74037980462474,-41.8909969156275
"Picarrao Sento Se ",2930204,BA,Sento Sé,20,Piçarrão,-9.74037980462474,-41.8909969156275
"Cajui Sento Se ",2930204,BA,Sento Sé,25,Cajuí,-9.74037980462474,-41.8909969156275
"Minas do Mimoso Sento Se ",2930204,BA,Sento Sé,30,Minas do Mimoso,-9.74037980462474,-41.8909969156275
"Piri Sento Se ",2930204,BA,Sento Sé,35,Piri,-9.74037980462474,-41.8909969156275
Serra do Ramalho,2930154,BA,Serra do Ramalho,5,Serra do Ramalho,-13.5644659880715,-43.5807307421456
Serra Dourada,2930303,BA,Serra Dourada,5,Serra Dourada,-12.7625947392978,-43.9523372558921
Serra Preta,2930402,BA,Serra Preta,5,Serra Preta,-12.1597268274139,-39.3325039202553
Serrinha,2930501,BA,Serrinha,5,Serrinha,-11.6595317243643,-39.008132628756
Serrolandia,2930600,BA,Serrolândia,5,Serrolândia,-11.4160318981088,-40.299905217028
Simoes Filho,2930709,BA,Simões Filho,5,Simões Filho,-12.7839414833678,-38.4115191932451
Sítio do Mato,2930758,BA,Sítio do Mato,5,Sítio do Mato,-13.0857927061126,-43.4664411672544
"Gameleira da Lapa Sítio do Mato ",2930758,BA,Sítio do Mato,10,Gameleira da Lapa,-13.0857927061126,-43.4664411672544
Sítio do Quinto,2930766,BA,Sítio do Quinto,5,Sítio do Quinto,-10.3641586477739,-38.2003708811346
Sobradinho,2930774,BA,Sobradinho,5,Sobradinho,-9.47080663849994,-40.7915948463624
Souto Soares,2930808,BA,Souto Soares,5,Souto Soares,-12.0925960034189,-41.6442483898691
"Cisterna Souto Soares ",2930808,BA,Souto Soares,10,Cisterna,-12.0925960034189,-41.6442483898691
"Segredo Souto Soares ",2930808,BA,Souto Soares,25,Segrêdo,-12.0925960034189,-41.6442483898691
Tabocas do Brejo Velho,2930907,BA,Tabocas do Brejo Velho,5,Tabocas do Brejo Velho,-12.7073009223161,-44.0111890670864
"Mariquita Tabocas do Brejo Velho ",2930907,BA,Tabocas do Brejo Velho,10,Mariquita,-12.7073009223161,-44.0111890670864
Tanhacu,2931004,BA,Tanhaçu,5,Tanhaçu,-14.0255080592255,-41.2543335107241
"Sussuarana Tanhacu ",2931004,BA,Tanhaçu,10,Sussuarana,-14.0255080592255,-41.2543335107241
Tanque Novo,2931053,BA,Tanque Novo,5,Tanque Novo,-13.5465603206792,-42.4906125114981
Tanquinho,2931103,BA,Tanquinho,5,Tanquinho,-11.9716930934711,-39.100547165361
Taperoa,2931202,BA,Taperoá,5,Taperoá,-13.5309926331682,-39.1006222478813
"Camurugi Taperoa ",2931202,BA,Taperoá,10,Camurugi,-13.5309926331682,-39.1006222478813
Tapiramuta,2931301,BA,Tapiramutá,5,Tapiramutá,-11.8523411104563,-40.7887003322581
"Volta Grande Tapiramuta ",2931301,BA,Tapiramutá,10,Volta Grande,-11.8523411104563,-40.7887003322581
Teixeira de Freitas,2931350,BA,Teixeira de Freitas,5,Teixeira de Freitas,-17.5377498816811,-39.7445176868085
"Cachoeira do Mato Teixeira de Freitas ",2931350,BA,Teixeira de Freitas,10,Cachoeira do Mato,-17.5377498816811,-39.7445176868085
Teodoro Sampaio,2931400,BA,Teodoro Sampaio,5,Teodoro Sampaio,-12.3014071565363,-38.6419275419473
"Buracica Teodoro Sampaio ",2931400,BA,Teodoro Sampaio,10,Buracica,-12.3014071565363,-38.6419275419473
"Lustosa Teodoro Sampaio ",2931400,BA,Teodoro Sampaio,15,Lustosa,-12.3014071565363,-38.6419275419473
Teofilandia,2931509,BA,Teofilândia,5,Teofilândia,-11.4829246317549,-39.0058128587129
Teolandia,2931608,BA,Teolândia,5,Teolândia,-13.6011060070107,-39.4893857886023
Terra Nova,2931707,BA,Terra Nova,5,Terra Nova,-12.4030919013749,-38.6231018591955
"Jacu Terra Nova ",2931707,BA,Terra Nova,10,Jacu,-12.4030919013749,-38.6231018591955
"Rio Fundo Terra Nova ",2931707,BA,Terra Nova,15,Rio Fundo,-12.4030919013749,-38.6231018591955
Tremedal,2931806,BA,Tremedal,5,Tremedal,-14.9724717722726,-41.4095763195932
"Lagoa Preta Tremedal ",2931806,BA,Tremedal,15,Lagoa Preta,-14.9724717722726,-41.4095763195932
Tucano,2931905,BA,Tucano,5,Tucano,-10.9643001695673,-38.7859480015492
Uaua,2932002,BA,Uauá,5,Uauá,-9.83265416561483,-39.4880641705295
"Caldeirao Uaua ",2932002,BA,Uauá,10,Caldeirão,-9.83265416561483,-39.4880641705295
"Serra da Canabrava Uaua ",2932002,BA,Uauá,15,Serra da Canabrava,-9.83265416561483,-39.4880641705295
Ubaira,2932101,BA,Ubaíra,5,Ubaíra,-13.2680894848911,-39.662032567228
Baixinha Ubaira,2932101,BA,Ubaíra,10,Baixinha,-13.2680894848911,-39.662032567228
"Engenheiro Franca Ubaira ",2932101,BA,Ubaíra,15,Engenheiro Franca,-13.2680894848911,-39.662032567228
Ubaitaba,2932200,BA,Ubaitaba,5,Ubaitaba,-14.3104363678067,-39.3225474057589
"Faisqueira Ubaitaba ",2932200,BA,Ubaitaba,10,Faisqueira,-14.3104363678067,-39.3225474057589
"Pirauna Ubaitaba ",2932200,BA,Ubaitaba,25,Piraúna,-14.3104363678067,-39.3225474057589
Ubata,2932309,BA,Ubatã,5,Ubatã,-14.211466553942,-39.5226677883931
Uibai,2932408,BA,Uibaí,5,Uibaí,-11.3381145644914,-42.1337955487965
"Hidrolandia Uibai ",2932408,BA,Uibaí,10,Hidrolândia,-11.3381145644914,-42.1337955487965
Umburanas,2932457,BA,Umburanas,5,Umburanas,-10.7292712187978,-41.3329141302901
"Delfino Umburanas ",2932457,BA,Umburanas,10,Delfino,-10.7292712187978,-41.3329141302901
Una,2932507,BA,Una,5,Una,-15.294208064906,-39.0747128879619
"Colônia Una ",2932507,BA,Una,20,Colônia,-15.294208064906,-39.0747128879619
"Comandatuba Una ",2932507,BA,Una,25,Comandatuba,-15.294208064906,-39.0747128879619
"Pedras de Una Una ",2932507,BA,Una,35,Pedras de Una,-15.294208064906,-39.0747128879619
"Vila Brasil Una ",2932507,BA,Una,40,Vila Brasil,-15.294208064906,-39.0747128879619
Urandi,2932606,BA,Urandi,5,Urandi,-14.7632421837899,-42.6589988097565
Urucuca,2932705,BA,Uruçuca,5,Uruçuca,-14.5920354535153,-39.2838018788493
"Serra Grande Urucuca ",2932705,BA,Uruçuca,25,Serra Grande,-14.5920354535153,-39.2838018788493
Utinga,2932804,BA,Utinga,5,Utinga,-12.0833176629994,-41.0958288508152
"Riachao do Utinga Utinga ",2932804,BA,Utinga,10,Riachão do Utinga,-12.0833176629994,-41.0958288508152
Valenca,2932903,BA,Valença,5,Valença,-13.370341506502,-39.0723502471979
"Guaibim Valenca ",2932903,BA,Valença,8,Guaibim,-13.370341506502,-39.0723502471979
"Guerem Valenca ",2932903,BA,Valença,10,Guerém,-13.370341506502,-39.0723502471979
"Maricoabo Valenca ",2932903,BA,Valença,15,Maricoabo,-13.370341506502,-39.0723502471979
"Serra Grande Valenca ",2932903,BA,Valença,20,Serra Grande,-13.370341506502,-39.0723502471979
Valente,2933000,BA,Valente,5,Valente,-11.412489535751,-39.4642460663082
Varzea da Roca,2933059,BA,Várzea da Roça,5,Várzea da Roça,-11.5989862634569,-40.1406370838535
Varzea do Poco,2933109,BA,Várzea do Poço,5,Várzea do Poço,-11.5239795325989,-40.3189181998398
Varzea Nova,2933158,BA,Várzea Nova,5,Várzea Nova,-11.2572312022726,-40.9458459310635
Varzedo,2933174,BA,Varzedo,5,Varzedo,-12.9753125649567,-39.3934758347381
"Taboleiro do Castro Varzedo ",2933174,BA,Varzedo,25,Taboleiro do Castro,-12.9753125649567,-39.3934758347381
Vera Cruz,2933208,BA,Vera Cruz,5,Vera Cruz,-29.7198575940345,-52.5011034071041
"Cacha Pregos Vera Cruz ",2933208,BA,Vera Cruz,10,Cacha Pregos,-29.7198575940345,-52.5011034071041
"Jiribatuba Vera Cruz ",2933208,BA,Vera Cruz,15,Jiribatuba,-29.7198575940345,-52.5011034071041
"Mar Grande Vera Cruz ",2933208,BA,Vera Cruz,20,Mar Grande,-29.7198575940345,-52.5011034071041
Vereda,2933257,BA,Vereda,5,Vereda,-17.2239340593797,-40.0844849278142
Vitória da Conquista,2933307,BA,Vitória da Conquista,5,Vitória da Conquista,-14.8480048115856,-40.8398095371781
Wagner,2933406,BA,Wagner,5,Wagner,-12.2842507899379,-41.169626985929
Wanderley,2933455,BA,Wanderley,5,Wanderley,-12.1201503140061,-43.8889295198526
Wenceslau Guimaraes,2933505,BA,Wenceslau Guimarães,5,Wenceslau Guimarães,-13.688587752525,-39.4796708031912
Xique Xique,2933604,BA,Xique-Xique,5,Xique-Xique,-10.8249744181433,-42.7255080011618
"Copixaba Xique Xique ",2933604,BA,Xique-Xique,10,Copixaba,-10.8249744181433,-42.7255080011618
"Iguira Xique Xique ",2933604,BA,Xique-Xique,15,Iguira,-10.8249744181433,-42.7255080011618
Abaiara,2300101,CE,Abaiara,5,Abaiara,-7.35697659589831,-39.0475466361851
"São José Abaiara ",2300101,CE,Abaiara,20,São José,-7.35697659589831,-39.0475466361851
Acarape,2300150,CE,Acarape,5,Acarape,-4.22313840937244,-38.7056237709826
Acarau,2300200,CE,Acaraú,5,Acaraú,-2.885310540095,-40.1182414711655
Aranau Acarau,2300200,CE,Acaraú,10,Aranaú,-2.885310540095,-40.1182414711655
"Juritianha Acarau ",2300200,CE,Acaraú,30,Juritianha,-2.885310540095,-40.1182414711655
"Lagoa do Carneiro Acarau ",2300200,CE,Acaraú,40,Lagoa do Carneiro,-2.885310540095,-40.1182414711655
Acopiara,2300309,CE,Acopiara,5,Acopiara,-6.092761995,-39.4557052761772
Aiuaba,2300408,CE,Aiuaba,5,Aiuaba,-6.56329844005168,-40.1231600775541
"Barra Aiuaba ",2300408,CE,Aiuaba,10,Barra,-6.56329844005168,-40.1231600775541
Alcantaras,2300507,CE,Alcântaras,5,Alcântaras,-3.58698376924817,-40.5446381225739
"Ventura Alcantaras ",2300507,CE,Alcântaras,10,Ventura,-3.58698376924817,-40.5446381225739
Altaneira,2300606,CE,Altaneira,5,Altaneira,-6.9974983508052,-39.7458206389421
"São Romao Altaneira ",2300606,CE,Altaneira,10,São Romão,-6.9974983508052,-39.7458206389421
Alto Santo,2300705,CE,Alto Santo,5,Alto Santo,-5.52208173974523,-38.2727781487196
Baixio Grande Alto Santo,2300705,CE,Alto Santo,8,Baixio Grande,-5.52208173974523,-38.2727781487196
"Castanhao Alto Santo ",2300705,CE,Alto Santo,10,Castanhão,-5.52208173974523,-38.2727781487196
"Batoque Alto Santo ",2300705,CE,Alto Santo,12,Batoque,-5.52208173974523,-38.2727781487196
"Boa Fe Alto Santo ",2300705,CE,Alto Santo,15,Boa Fé,-5.52208173974523,-38.2727781487196
"Bom Jesus Alto Santo ",2300705,CE,Alto Santo,20,Bom Jesus,-5.52208173974523,-38.2727781487196
"Cabrito Alto Santo ",2300705,CE,Alto Santo,25,Cabrito,-5.52208173974523,-38.2727781487196
Amontada,2300754,CE,Amontada,5,Amontada,-3.36487780347731,-39.8288227917225
Antonina do Norte,2300804,CE,Antonina do Norte,5,Antonina do Norte,-6.77968784711829,-39.9823868418819
"Taboleiro Antonina do Norte ",2300804,CE,Antonina do Norte,10,Taboleiro,-6.77968784711829,-39.9823868418819
Apuiares,2300903,CE,Apuiarés,5,Apuiarés,-3.94801851861481,-39.4304227833004
"Canafistula Apuiares ",2300903,CE,Apuiarés,10,Canafístula,-3.94801851861481,-39.4304227833004
"Vila Soares Apuiares ",2300903,CE,Apuiarés,15,Vila Soares,-3.94801851861481,-39.4304227833004
Aquiraz,2301000,CE,Aquiraz,5,Aquiraz,-3.9061945,-38.3898029588509
Aracati,2301109,CE,Aracati,5,Aracati,-4.56706647,-37.7727525989113
"Barreira dos Vianas Aracati ",2301109,CE,Aracati,7,Barreira dos Vianas,-4.56706647,-37.7727525989113
"Cabreiro Aracati ",2301109,CE,Aracati,10,Cabreiro,-4.56706647,-37.7727525989113
"Corrego dos Fernandes Aracati ",2301109,CE,Aracati,16,Córrego dos Fernandes,-4.56706647,-37.7727525989113
"Jirau Aracati ",2301109,CE,Aracati,24,Jirau,-4.56706647,-37.7727525989113
"Mata Fresca Aracati ",2301109,CE,Aracati,35,Mata Fresca,-4.56706647,-37.7727525989113
"Santa Tereza Aracati ",2301109,CE,Aracati,40,Santa Tereza,-4.56706647,-37.7727525989113
Aracoiaba,2301208,CE,Aracoiaba,5,Aracoiaba,-7.78564187251451,-35.0939665275382
Ararenda,2301257,CE,Ararendá,5,Ararendá,-4.75193827199216,-40.8310967349814
"Santo Antônio Ararenda ",2301257,CE,Ararendá,15,Santo Antônio,-4.75193827199216,-40.8310967349814
Araripe,2301307,CE,Araripe,5,Araripe,-7.20618378918069,-40.1374458093569
"Alagoinha Araripe ",2301307,CE,Araripe,10,Alagoinha,-7.20618378918069,-40.1374458093569
"Brejinho Araripe ",2301307,CE,Araripe,15,Brejinho,-7.20618378918069,-40.1374458093569
"Pajeu Araripe ",2301307,CE,Araripe,20,Pajeú,-7.20618378918069,-40.1374458093569
"Riacho Grande Araripe ",2301307,CE,Araripe,25,Riacho Grande,-7.20618378918069,-40.1374458093569
Aratuba,2301406,CE,Aratuba,5,Aratuba,-4.41693064499256,-39.047554561796
"Pai João Aratuba ",2301406,CE,Aratuba,20,Pai João,-4.41693064499256,-39.047554561796
Arneiroz,2301505,CE,Arneiroz,5,Arneiroz,-6.31942580302218,-40.161443712374
"Cachoeira de Fora Arneiroz ",2301505,CE,Arneiroz,10,Cachoeira de Fora,-6.31942580302218,-40.161443712374
"Planalto Arneiroz ",2301505,CE,Arneiroz,20,Planalto,-6.31942580302218,-40.161443712374
